[
  {
    "id": 31555769,
    "type": "node",
    "tourism": "hotel",
    "name": "The White Lion",
    "lat": 54.4313791,
    "lon": -2.9621712,
    "amenity": "pub",
    "brand": "Ember Inns",
    "brand_wikidata": "Q116272278",
    "fhrs_id": "299308",
    "addr_housename": null,
    "addr_street": "Market Place",
    "addr_city": "Ambleside",
    "addr_postcode": "LA22 9DB",
    "addr_country": null,
    "phone": null,
    "website": "https://www.emberinns.co.uk/nationalsearch/northwest/the-white-lion-hotel-ambleside"
  },
  {
    "id": 254002014,
    "type": "node",
    "tourism": "hotel",
    "name": "Bridge Inn",
    "lat": 54.4022955,
    "lon": -3.3725274,
    "amenity": "pub",
    "brand": null,
    "brand_wikidata": null,
    "fhrs_id": null,
    "addr_housename": "Bridge Inn",
    "addr_street": "Santon Bridge, Wasdale",
    "addr_city": "Holmrook",
    "addr_postcode": "CA19 1UX",
    "addr_country": "GB",
    "phone": "+44 1946 726221",
    "website": null
  },
  {
    "id": 262858183,
    "type": "node",
    "tourism": "guest_house",
    "name": "Wordsworth",
    "lat": 54.5358009,
    "lon": -2.9288137,
    "amenity": null,
    "brand": null,
    "brand_wikidata": null,
    "fhrs_id": null,
    "addr_housename": null,
    "addr_street": null,
    "addr_city": null,
    "addr_postcode": null,
    "addr_country": null,
    "phone": null,
    "website": null
  },
  {
    "id": 302866833,
    "type": "node",
    "tourism": "hotel",
    "name": "Lairbeck Hotel",
    "lat": 54.6081411,
    "lon": -3.1454469,
    "amenity": null,
    "brand": null,
    "brand_wikidata": null,
    "fhrs_id": null,
    "addr_housename": null,
    "addr_street": null,
    "addr_city": null,
    "addr_postcode": null,
    "addr_country": null,
    "phone": null,
    "website": null
  },
  {
    "id": 486598635,
    "type": "node",
    "tourism": "hotel",
    "name": "Holbeck Ghyll Country Park Hotel",
    "lat": 54.4117414,
    "lon": -2.9388256,
    "amenity": null,
    "brand": null,
    "brand_wikidata": null,
    "fhrs_id": "299108",
    "addr_housename": null,
    "addr_street": "Holbeck Lane",
    "addr_city": "Windermere",
    "addr_postcode": "LA23 1LU",
    "addr_country": null,
    "phone": "+44 1539 432 375",
    "website": "https://www.holbeckghyll.com/"
  },
  {
    "id": 511236657,
    "type": "node",
    "tourism": "guest_house",
    "name": "Buckle Yeat Guest House",
    "lat": 54.3520831,
    "lon": -2.970472,
    "amenity": null,
    "brand": null,
    "brand_wikidata": null,
    "fhrs_id": "298952",
    "addr_housename": null,
    "addr_street": null,
    "addr_city": "Near Sawrey",
    "addr_postcode": "LA22 0LF",
    "addr_country": null,
    "phone": null,
    "website": "https://www.buckle-yeat.co.uk/"
  },
  {
    "id": 540928817,
    "type": "node",
    "tourism": "guest_house",
    "name": "Bybeck House",
    "lat": 54.5471438,
    "lon": -3.1556884,
    "amenity": null,
    "brand": null,
    "brand_wikidata": null,
    "fhrs_id": null,
    "addr_housename": null,
    "addr_street": null,
    "addr_city": null,
    "addr_postcode": null,
    "addr_country": null,
    "phone": null,
    "website": null
  },
  {
    "id": 672990017,
    "type": "node",
    "tourism": "camp_site",
    "name": "Great Tower Scout Activity Centre",
    "lat": 54.3155005,
    "lon": -2.9322785,
    "amenity": null,
    "brand": null,
    "brand_wikidata": null,
    "fhrs_id": "299996",
    "addr_housename": null,
    "addr_street": "Birks Road",
    "addr_city": "Windermere",
    "addr_postcode": "LA23 3PQ",
    "addr_country": null,
    "phone": null,
    "website": "https://www.scoutactivitycentres.org.uk/locations/greattower/"
  },
  {
    "id": 720613037,
    "type": "node",
    "tourism": "hotel",
    "name": "The Inn at Ravenglass",
    "lat": 54.3553009,
    "lon": -3.4106271,
    "amenity": null,
    "brand": null,
    "brand_wikidata": null,
    "fhrs_id": null,
    "addr_housename": null,
    "addr_street": "Main Street",
    "addr_city": "Ravenglass",
    "addr_postcode": "CA18 1SQ",
    "addr_country": null,
    "phone": "+44 1229 717230",
    "website": "http://theinnatravenglass.co.uk/"
  },
  {
    "id": 746858253,
    "type": "node",
    "tourism": "hotel",
    "name": "Black Bull Inn & Hotel",
    "lat": 54.369284,
    "lon": -3.0760483,
    "amenity": null,
    "brand": null,
    "brand_wikidata": null,
    "fhrs_id": "299427",
    "addr_housename": null,
    "addr_street": "Yewdale Road",
    "addr_city": "Coniston",
    "addr_postcode": "LA21 8DU",
    "addr_country": null,
    "phone": "+44 15394 41335",
    "website": null
  },
  {
    "id": 746858555,
    "type": "node",
    "tourism": "guest_house",
    "name": "Ann Tysons House",
    "lat": 54.3749356,
    "lon": -2.9994798,
    "amenity": null,
    "brand": null,
    "brand_wikidata": null,
    "fhrs_id": null,
    "addr_housename": null,
    "addr_street": "Wordsworth Street",
    "addr_city": "Hawkshead",
    "addr_postcode": "LA22 0PA",
    "addr_country": null,
    "phone": "+44 15394 36405",
    "website": "http://www.anntysons.co.uk/"
  },
  {
    "id": 769766377,
    "type": "node",
    "tourism": "hotel",
    "name": "Grizedale Lodge Hotel",
    "lat": 54.3457249,
    "lon": -3.0240331,
    "amenity": null,
    "brand": null,
    "brand_wikidata": null,
    "fhrs_id": null,
    "addr_housename": null,
    "addr_street": null,
    "addr_city": "Hawkshead",
    "addr_postcode": "LA22 0QL",
    "addr_country": null,
    "phone": "+44 1539 436532",
    "website": "https://www.grizedale-lodge.com/"
  },
  {
    "id": 946002079,
    "type": "node",
    "tourism": "hotel",
    "name": "The Sun Above Coniston",
    "lat": 54.3691508,
    "lon": -3.0785988,
    "amenity": null,
    "brand": null,
    "brand_wikidata": null,
    "fhrs_id": "328861",
    "addr_housename": null,
    "addr_street": null,
    "addr_city": "Coniston",
    "addr_postcode": "LA21 8HQ",
    "addr_country": null,
    "phone": "+44 15394 41248",
    "website": "http://www.thesunconiston.com/"
  },
  {
    "id": 968967742,
    "type": "node",
    "tourism": "hotel",
    "name": "HF Holidays Monk Coniston",
    "lat": 54.3757418,
    "lon": -3.0512133,
    "amenity": null,
    "brand": null,
    "brand_wikidata": null,
    "fhrs_id": "328942",
    "addr_housename": "Monk Coniston Hall",
    "addr_street": "Hawkshead Road",
    "addr_city": "Coniston",
    "addr_postcode": "LA21 8AQ",
    "addr_country": "GB",
    "phone": "+44 1539 441 566",
    "website": "https://www.hfholidays.co.uk/country-houses/locations/coniston-lake-district-south"
  },
  {
    "id": 979129257,
    "type": "node",
    "tourism": "caravan_site",
    "name": "Birch Bank",
    "lat": 54.2778324,
    "lon": -3.1365645,
    "amenity": null,
    "brand": null,
    "brand_wikidata": null,
    "fhrs_id": null,
    "addr_housename": null,
    "addr_street": null,
    "addr_city": null,
    "addr_postcode": null,
    "addr_country": null,
    "phone": null,
    "website": null
  },
  {
    "id": 1013868019,
    "type": "node",
    "tourism": "caravan_site",
    "name": "Black Beck Caravan Park",
    "lat": 54.2629902,
    "lon": -3.0215034,
    "amenity": null,
    "brand": null,
    "brand_wikidata": null,
    "fhrs_id": null,
    "addr_housename": null,
    "addr_street": null,
    "addr_city": null,
    "addr_postcode": null,
    "addr_country": null,
    "phone": null,
    "website": null
  },
  {
    "id": 1100394212,
    "type": "node",
    "tourism": "guest_house",
    "name": "The Old Rectory Country Guest House",
    "lat": 54.3419471,
    "lon": -3.0955613,
    "amenity": null,
    "brand": null,
    "brand_wikidata": null,
    "fhrs_id": "328963",
    "addr_housename": null,
    "addr_street": null,
    "addr_city": "Torver",
    "addr_postcode": "LA21 8AX",
    "addr_country": null,
    "phone": "+44 15394 41353",
    "website": "https://www.theoldrectoryhotel.com/"
  },
  {
    "id": 1104421326,
    "type": "node",
    "tourism": "guest_house",
    "name": "Fairy Glen",
    "lat": 54.4646586,
    "lon": -3.0216976,
    "amenity": null,
    "brand": null,
    "brand_wikidata": null,
    "fhrs_id": null,
    "addr_housename": null,
    "addr_street": "Swan Lane",
    "addr_city": null,
    "addr_postcode": "LA22 9RH",
    "addr_country": null,
    "phone": "+44 15394 32321",
    "website": "https://www.heartofthelakes.co.uk/property/grasmere-rydal/fairy-glen-2016/7064A"
  },
  {
    "id": 1203309250,
    "type": "node",
    "tourism": "guest_house",
    "name": "Lane Head Farm Country Guest House",
    "lat": 54.6347655,
    "lon": -2.9701014,
    "amenity": null,
    "brand": null,
    "brand_wikidata": null,
    "fhrs_id": "307107",
    "addr_housename": null,
    "addr_street": null,
    "addr_city": "Troutbeck",
    "addr_postcode": "CA11 0SY",
    "addr_country": null,
    "phone": "+44 17687 79220",
    "website": "https://www.laneheadfarm.co.uk/"
  },
  {
    "id": 1266589292,
    "type": "node",
    "tourism": "guest_house",
    "name": "Li'le Hullets",
    "lat": 54.3779509,
    "lon": -2.8291212,
    "amenity": null,
    "brand": null,
    "brand_wikidata": null,
    "fhrs_id": null,
    "addr_housename": null,
    "addr_street": null,
    "addr_city": null,
    "addr_postcode": null,
    "addr_country": null,
    "phone": null,
    "website": null
  },
  {
    "id": 1311846429,
    "type": "node",
    "tourism": "guest_house",
    "name": "Bluebird Lodge",
    "lat": 54.3688269,
    "lon": -3.0635003,
    "amenity": null,
    "brand": null,
    "brand_wikidata": null,
    "fhrs_id": "299740",
    "addr_housename": null,
    "addr_street": null,
    "addr_city": "Coniston",
    "addr_postcode": "LA21 8AJ",
    "addr_country": null,
    "phone": null,
    "website": "www.bluebirdlodge.co.uk"
  },
  {
    "id": 1311846491,
    "type": "node",
    "tourism": "guest_house",
    "name": "Raise View",
    "lat": 54.4643962,
    "lon": -3.022209,
    "amenity": null,
    "brand": null,
    "brand_wikidata": null,
    "fhrs_id": "299454",
    "addr_housename": "Raise View",
    "addr_street": null,
    "addr_city": "Grasmere",
    "addr_postcode": "LA22 9RQ",
    "addr_country": null,
    "phone": "+44 15394 35215",
    "website": "https://www.raiseview.uk/"
  },
  {
    "id": 1311846507,
    "type": "node",
    "tourism": "guest_house",
    "name": "Bridge End",
    "lat": 54.4642895,
    "lon": -3.0222321,
    "amenity": null,
    "brand": null,
    "brand_wikidata": null,
    "fhrs_id": null,
    "addr_housename": null,
    "addr_street": null,
    "addr_city": "Grasmere",
    "addr_postcode": null,
    "addr_country": null,
    "phone": null,
    "website": null
  },
  {
    "id": 1382881458,
    "type": "node",
    "tourism": "hostel",
    "name": "Bassenfell Manor Christian Centre",
    "lat": 54.6828899,
    "lon": -3.2146793,
    "amenity": null,
    "brand": null,
    "brand_wikidata": null,
    "fhrs_id": null,
    "addr_housename": null,
    "addr_street": "North Row",
    "addr_city": "Bassenthwaite",
    "addr_postcode": "CA12 4RL",
    "addr_country": null,
    "phone": "+44 1768 776 366",
    "website": "https://www.bassenfell.org.uk"
  },
  {
    "id": 1397579444,
    "type": "node",
    "tourism": "guest_house",
    "name": "Nagoya",
    "lat": 54.3617288,
    "lon": -2.9194149,
    "amenity": null,
    "brand": null,
    "brand_wikidata": null,
    "fhrs_id": null,
    "addr_housename": null,
    "addr_street": "Brackenfield",
    "addr_city": "Bowness-on-Windermere",
    "addr_postcode": "LA23 3HL",
    "addr_country": null,
    "phone": null,
    "website": null
  },
  {
    "id": 1427088994,
    "type": "node",
    "tourism": "guest_house",
    "name": "Beckfoot Country House",
    "lat": 54.5744845,
    "lon": -2.7594639,
    "amenity": "cafe",
    "brand": null,
    "brand_wikidata": null,
    "fhrs_id": null,
    "addr_housename": "Beckfoot Country House",
    "addr_street": null,
    "addr_city": "Helton",
    "addr_postcode": "CA10 2QB",
    "addr_country": "GB",
    "phone": "+44 1931 713241",
    "website": "www.beckfoot.co.uk"
  },
  {
    "id": 1433131038,
    "type": "node",
    "tourism": "camp_site",
    "name": "Castlerigg Farm",
    "lat": 54.5919653,
    "lon": -3.1109818,
    "amenity": null,
    "brand": null,
    "brand_wikidata": null,
    "fhrs_id": null,
    "addr_housename": null,
    "addr_street": null,
    "addr_city": null,
    "addr_postcode": null,
    "addr_country": null,
    "phone": null,
    "website": null
  },
  {
    "id": 1443549394,
    "type": "node",
    "tourism": "guest_house",
    "name": "Netherdene B&B",
    "lat": 54.6351005,
    "lon": -2.9479536,
    "amenity": null,
    "brand": null,
    "brand_wikidata": null,
    "fhrs_id": "307103",
    "addr_housename": null,
    "addr_street": null,
    "addr_city": "Troutbeck",
    "addr_postcode": "CA11 0SJ",
    "addr_country": null,
    "phone": null,
    "website": null
  },
  {
    "id": 1542905836,
    "type": "node",
    "tourism": "caravan_site",
    "name": "Hill of Oaks",
    "lat": 54.3024021,
    "lon": -2.9493921,
    "amenity": null,
    "brand": null,
    "brand_wikidata": null,
    "fhrs_id": null,
    "addr_housename": null,
    "addr_street": null,
    "addr_city": null,
    "addr_postcode": null,
    "addr_country": null,
    "phone": null,
    "website": null
  },
  {
    "id": 1601767241,
    "type": "node",
    "tourism": "caravan_site",
    "name": "Low Manesty Caravan Park",
    "lat": 54.557537,
    "lon": -3.1575894,
    "amenity": null,
    "brand": null,
    "brand_wikidata": null,
    "fhrs_id": "267351",
    "addr_housename": "Low Manesty Caravan Park",
    "addr_street": null,
    "addr_city": "Manesty",
    "addr_postcode": "CA12 5UG",
    "addr_country": null,
    "phone": null,
    "website": null
  },
  {
    "id": 1636473004,
    "type": "node",
    "tourism": "guest_house",
    "name": "Muncaster Country Guest House",
    "lat": 54.3576807,
    "lon": -3.3889664,
    "amenity": null,
    "brand": null,
    "brand_wikidata": null,
    "fhrs_id": null,
    "addr_housename": null,
    "addr_street": null,
    "addr_city": null,
    "addr_postcode": null,
    "addr_country": null,
    "phone": null,
    "website": null
  },
  {
    "id": 1709942391,
    "type": "node",
    "tourism": "hostel",
    "name": "Yorkshire Mountaineering Club Hut",
    "lat": 54.3767382,
    "lon": -3.091343,
    "amenity": null,
    "brand": null,
    "brand_wikidata": null,
    "fhrs_id": null,
    "addr_housename": null,
    "addr_street": null,
    "addr_city": "Coniston",
    "addr_postcode": null,
    "addr_country": null,
    "phone": null,
    "website": "https://www.theymc.org.uk/the-hut/"
  },
  {
    "id": 1726366598,
    "type": "node",
    "tourism": "guest_house",
    "name": "Meadow Bank",
    "lat": 54.6210456,
    "lon": -3.3022465,
    "amenity": null,
    "brand": null,
    "brand_wikidata": null,
    "fhrs_id": null,
    "addr_housename": "Meadow Bank",
    "addr_street": null,
    "addr_city": "High Lorton",
    "addr_postcode": "CA13 9UG",
    "addr_country": null,
    "phone": "+44 1900 85315",
    "website": "https://meadowbanklorton.co.uk/"
  },
  {
    "id": 1816826104,
    "type": "node",
    "tourism": "hotel",
    "name": "Dale Lodge Hotel",
    "lat": 54.4579987,
    "lon": -3.0254734,
    "amenity": null,
    "brand": null,
    "brand_wikidata": null,
    "fhrs_id": "300007",
    "addr_housename": null,
    "addr_street": "Red Bank Road",
    "addr_city": "Grasmere",
    "addr_postcode": "LA22 9SW",
    "addr_country": null,
    "phone": "+44 15394 35300",
    "website": "https://www.dalelodgehotel.co.uk/"
  },
  {
    "id": 1844563615,
    "type": "node",
    "tourism": "guest_house",
    "name": "The Brambles",
    "lat": 54.6192379,
    "lon": -3.0546403,
    "amenity": null,
    "brand": null,
    "brand_wikidata": null,
    "fhrs_id": null,
    "addr_housename": null,
    "addr_street": null,
    "addr_city": null,
    "addr_postcode": null,
    "addr_country": null,
    "phone": null,
    "website": null
  },
  {
    "id": 1864813419,
    "type": "node",
    "tourism": "guest_house",
    "name": "The Bungalows",
    "lat": 54.620732,
    "lon": -3.0588406,
    "amenity": null,
    "brand": null,
    "brand_wikidata": null,
    "fhrs_id": null,
    "addr_housename": null,
    "addr_street": null,
    "addr_city": null,
    "addr_postcode": null,
    "addr_country": null,
    "phone": null,
    "website": null
  },
  {
    "id": 2122366007,
    "type": "node",
    "tourism": "caravan_site",
    "name": "Unnamed",
    "lat": 54.359053,
    "lon": -2.8064808,
    "amenity": null,
    "brand": null,
    "brand_wikidata": null,
    "fhrs_id": null,
    "addr_housename": null,
    "addr_street": null,
    "addr_city": null,
    "addr_postcode": null,
    "addr_country": null,
    "phone": null,
    "website": null
  },
  {
    "id": 2123562946,
    "type": "node",
    "tourism": "hotel",
    "name": "Daffodil Hotel & Spa",
    "lat": 54.4532106,
    "lon": -3.0173958,
    "amenity": null,
    "brand": null,
    "brand_wikidata": null,
    "fhrs_id": "446704",
    "addr_housename": null,
    "addr_street": "Keswick Road",
    "addr_city": "Grasmere",
    "addr_postcode": "LA22 9PR",
    "addr_country": null,
    "phone": "+44 15394 63550",
    "website": "https://www.daffodilhotel.co.uk/"
  },
  {
    "id": 2309761827,
    "type": "node",
    "tourism": "guest_house",
    "name": "Crummockwater Cottages",
    "lat": 54.5818224,
    "lon": -3.3294113,
    "amenity": null,
    "brand": null,
    "brand_wikidata": null,
    "fhrs_id": null,
    "addr_housename": null,
    "addr_street": null,
    "addr_city": "Foulsdyke",
    "addr_postcode": "CA13 0RS",
    "addr_country": null,
    "phone": "+44 1900 85637",
    "website": "https://www.crummockwatercottages.co.uk/"
  },
  {
    "id": 2476538661,
    "type": "node",
    "tourism": "hotel",
    "name": "Borrans Park",
    "lat": 54.4250847,
    "lon": -2.9660762,
    "amenity": null,
    "brand": null,
    "brand_wikidata": null,
    "fhrs_id": null,
    "addr_housename": null,
    "addr_street": null,
    "addr_city": null,
    "addr_postcode": null,
    "addr_country": null,
    "phone": null,
    "website": null
  },
  {
    "id": 2476582418,
    "type": "node",
    "tourism": "guest_house",
    "name": "Melrose",
    "lat": 54.4303584,
    "lon": -2.9641485,
    "amenity": null,
    "brand": null,
    "brand_wikidata": null,
    "fhrs_id": "441591",
    "addr_housename": null,
    "addr_street": "Church Street",
    "addr_city": "Ambleside",
    "addr_postcode": "LA22 0BT",
    "addr_country": null,
    "phone": null,
    "website": null
  },
  {
    "id": 2476582421,
    "type": "node",
    "tourism": "guest_house",
    "name": "3 Cambridge Villas",
    "lat": 54.4302177,
    "lon": -2.963827,
    "amenity": null,
    "brand": null,
    "brand_wikidata": null,
    "fhrs_id": "441661",
    "addr_housename": null,
    "addr_street": "Church Street",
    "addr_city": "Ambleside",
    "addr_postcode": "LA22 9DL",
    "addr_country": null,
    "phone": null,
    "website": null
  },
  {
    "id": 2476595854,
    "type": "node",
    "tourism": "guest_house",
    "name": "Rothay Garth",
    "lat": 54.4290271,
    "lon": -2.9653785,
    "amenity": null,
    "brand": null,
    "brand_wikidata": null,
    "fhrs_id": "299375",
    "addr_housename": null,
    "addr_street": "Rothay Road",
    "addr_city": "Ambleside",
    "addr_postcode": "LA22 0EE",
    "addr_country": null,
    "phone": "+44 15394 32217",
    "website": "https://www.rothay-garth.co.uk/"
  },
  {
    "id": 2532420518,
    "type": "node",
    "tourism": "guest_house",
    "name": "Newlands House",
    "lat": 54.5998327,
    "lon": -3.131482,
    "amenity": null,
    "brand": null,
    "brand_wikidata": null,
    "fhrs_id": null,
    "addr_housename": "Newlands House",
    "addr_street": "Eskin Street",
    "addr_city": "Keswick",
    "addr_postcode": "CA12 4DG",
    "addr_country": null,
    "phone": "+44 1332 843569",
    "website": "https://www.newlandshousekeswick.co.uk/"
  },
  {
    "id": 2592534890,
    "type": "node",
    "tourism": "hotel",
    "name": "Aynsome Manor Hotel",
    "lat": 54.2102718,
    "lon": -2.9455665,
    "amenity": null,
    "brand": null,
    "brand_wikidata": null,
    "fhrs_id": "299898",
    "addr_housename": null,
    "addr_street": "Aynsome Lane",
    "addr_city": null,
    "addr_postcode": "LA11 6HH",
    "addr_country": null,
    "phone": null,
    "website": "http://aynsomemanorhotel.co.uk/"
  },
  {
    "id": 2739971186,
    "type": "node",
    "tourism": "guest_house",
    "name": "Unnamed",
    "lat": 54.4578294,
    "lon": -3.0241715,
    "amenity": null,
    "brand": null,
    "brand_wikidata": null,
    "fhrs_id": null,
    "addr_housename": null,
    "addr_street": null,
    "addr_city": null,
    "addr_postcode": null,
    "addr_country": null,
    "phone": null,
    "website": null
  },
  {
    "id": 2794747071,
    "type": "node",
    "tourism": "guest_house",
    "name": "Croft House Cottages",
    "lat": 54.6178826,
    "lon": -3.144261,
    "amenity": null,
    "brand": null,
    "brand_wikidata": null,
    "fhrs_id": null,
    "addr_housename": "Croft House",
    "addr_street": null,
    "addr_city": "Applethwaite",
    "addr_postcode": "CA12 4PN",
    "addr_country": null,
    "phone": "+44 17687 73693",
    "website": "https://crofthousecottages.co.uk/"
  },
  {
    "id": 2987695312,
    "type": "node",
    "tourism": "hotel",
    "name": "Skelwith Bridge Hotel",
    "lat": 54.4223936,
    "lon": -3.0125984,
    "amenity": null,
    "brand": null,
    "brand_wikidata": null,
    "fhrs_id": "299247",
    "addr_housename": null,
    "addr_street": null,
    "addr_city": "Skelwith Bridge",
    "addr_postcode": "LA22 9NJ",
    "addr_country": null,
    "phone": "+44 15394 32115",
    "website": "https://www.skelwithbridgehotel.co.uk/"
  },
  {
    "id": 3037781851,
    "type": "node",
    "tourism": "hotel",
    "name": "Thwaite How Hotel",
    "lat": 54.619025,
    "lon": -3.2049082,
    "amenity": null,
    "brand": null,
    "brand_wikidata": null,
    "fhrs_id": null,
    "addr_housename": null,
    "addr_street": null,
    "addr_city": "Thornthwaite",
    "addr_postcode": "CA12 5SA",
    "addr_country": null,
    "phone": "+44 17687 78744",
    "website": null
  },
  {
    "id": 3428462715,
    "type": "node",
    "tourism": "guest_house",
    "name": "Ravensworth House",
    "lat": 54.6011284,
    "lon": -3.1349873,
    "amenity": null,
    "brand": null,
    "brand_wikidata": null,
    "fhrs_id": null,
    "addr_housename": null,
    "addr_street": "Station Street",
    "addr_city": "Keswick",
    "addr_postcode": "CA12 5HH",
    "addr_country": null,
    "phone": "+44 17687 72476",
    "website": "https://www.ravensworthhouse.co.uk/"
  },
  {
    "id": 3431342420,
    "type": "node",
    "tourism": "guest_house",
    "name": "Two Chimneys",
    "lat": 54.6031184,
    "lon": -3.125818,
    "amenity": null,
    "brand": null,
    "brand_wikidata": null,
    "fhrs_id": null,
    "addr_housename": null,
    "addr_street": "Low Brigham",
    "addr_city": "Keswick",
    "addr_postcode": "CA12 4JN",
    "addr_country": null,
    "phone": "+44 1768 775859",
    "website": "https://www.twochimneys-keswick.co.uk/"
  },
  {
    "id": 3431360943,
    "type": "node",
    "tourism": "guest_house",
    "name": "Bluestones",
    "lat": 54.6001303,
    "lon": -3.1338501,
    "amenity": null,
    "brand": null,
    "brand_wikidata": null,
    "fhrs_id": "1549720",
    "addr_housename": null,
    "addr_street": "Southey Street",
    "addr_city": "Keswick",
    "addr_postcode": "CA12 4EG",
    "addr_country": null,
    "phone": "+44 17687 74237",
    "website": "www.bluestonesguesthouse.co.uk"
  },
  {
    "id": 3431360945,
    "type": "node",
    "tourism": "guest_house",
    "name": "Sandon",
    "lat": 54.6000503,
    "lon": -3.1338253,
    "amenity": null,
    "brand": null,
    "brand_wikidata": null,
    "fhrs_id": null,
    "addr_housename": null,
    "addr_street": "Southey Street",
    "addr_city": "Keswick",
    "addr_postcode": "CA12 4EG",
    "addr_country": null,
    "phone": "+44 17687 73648",
    "website": "www.sandonguesthouse.co.uk"
  },
  {
    "id": 3431360950,
    "type": "node",
    "tourism": "hotel",
    "name": "Goodwin House",
    "lat": 54.5991991,
    "lon": -3.1332921,
    "amenity": null,
    "brand": null,
    "brand_wikidata": null,
    "fhrs_id": "1549719",
    "addr_housename": null,
    "addr_street": "Southey Street",
    "addr_city": "Keswick",
    "addr_postcode": "CA12 4EE",
    "addr_country": null,
    "phone": "+44 17687 74634",
    "website": "https://www.goodwinhouse.co.uk/"
  },
  {
    "id": 3431511377,
    "type": "node",
    "tourism": "guest_house",
    "name": "Seven Oaks",
    "lat": 54.5987938,
    "lon": -3.1322422,
    "amenity": null,
    "brand": null,
    "brand_wikidata": null,
    "fhrs_id": "1550011",
    "addr_housename": null,
    "addr_street": "Acorn Street",
    "addr_city": "Keswick",
    "addr_postcode": "CA12 4EA",
    "addr_country": null,
    "phone": "+44 17687 72088",
    "website": "https://www.sevenoaks-keswick.co.uk/"
  },
  {
    "id": 3431511378,
    "type": "node",
    "tourism": "guest_house",
    "name": "Watendlath Guest House",
    "lat": 54.5987342,
    "lon": -3.1318333,
    "amenity": null,
    "brand": null,
    "brand_wikidata": null,
    "fhrs_id": "1550010",
    "addr_housename": null,
    "addr_street": "Acorn Street",
    "addr_city": "Keswick",
    "addr_postcode": "CA12 4EA",
    "addr_country": null,
    "phone": "+44 17687 74165",
    "website": "https://www.watendlathguesthouse.co.uk/"
  },
  {
    "id": 3431511379,
    "type": "node",
    "tourism": "guest_house",
    "name": "Allerdale House",
    "lat": 54.5983013,
    "lon": -3.1318007,
    "amenity": null,
    "brand": null,
    "brand_wikidata": null,
    "fhrs_id": "1550551",
    "addr_housename": null,
    "addr_street": "Eskin Street",
    "addr_city": "Keswick",
    "addr_postcode": "CA12 4DH",
    "addr_country": null,
    "phone": "+44 17687 73891",
    "website": "https://www.allerdale-house.co.uk/"
  },
  {
    "id": 3431511389,
    "type": "node",
    "tourism": "guest_house",
    "name": "Tarn Hows",
    "lat": 54.5983997,
    "lon": -3.1317597,
    "amenity": null,
    "brand": null,
    "brand_wikidata": null,
    "fhrs_id": "1549774",
    "addr_housename": null,
    "addr_street": "Eskin Street",
    "addr_city": "Keswick",
    "addr_postcode": "CA12 4DH",
    "addr_country": null,
    "phone": "+44 17687 73217",
    "website": "https://tarnhows.co.uk/"
  },
  {
    "id": 3431511390,
    "type": "node",
    "tourism": "guest_house",
    "name": "Hunters Way",
    "lat": 54.5984713,
    "lon": -3.1313163,
    "amenity": null,
    "brand": null,
    "brand_wikidata": null,
    "fhrs_id": null,
    "addr_housename": null,
    "addr_street": "Eskin Street",
    "addr_city": "Keswick",
    "addr_postcode": "CA12 4DH",
    "addr_country": null,
    "phone": null,
    "website": "www.hunterswaykeswick.co.uk"
  },
  {
    "id": 3431516249,
    "type": "node",
    "tourism": "guest_house",
    "name": "Glendale",
    "lat": 54.5984715,
    "lon": -3.1317538,
    "amenity": null,
    "brand": null,
    "brand_wikidata": null,
    "fhrs_id": "1549552",
    "addr_housename": null,
    "addr_street": "Eskin Street",
    "addr_city": "Keswick",
    "addr_postcode": "CA12 4DH",
    "addr_country": null,
    "phone": "+44 17687 73562",
    "website": null
  },
  {
    "id": 3431516250,
    "type": "node",
    "tourism": "guest_house",
    "name": "Charnwood",
    "lat": 54.5985235,
    "lon": -3.1313149,
    "amenity": null,
    "brand": null,
    "brand_wikidata": null,
    "fhrs_id": "1549551",
    "addr_housename": null,
    "addr_street": "Eskin Street",
    "addr_city": "Keswick",
    "addr_postcode": "CA12 4DH",
    "addr_country": null,
    "phone": "+44 17687 74111",
    "website": null
  },
  {
    "id": 3431516251,
    "type": "node",
    "tourism": "guest_house",
    "name": "Clarence House",
    "lat": 54.5989683,
    "lon": -3.1313302,
    "amenity": null,
    "brand": null,
    "brand_wikidata": null,
    "fhrs_id": "1549745",
    "addr_housename": null,
    "addr_street": "Eskin Street",
    "addr_city": "Keswick",
    "addr_postcode": "CA12 4DQ",
    "addr_country": null,
    "phone": "+44 17687 73186",
    "website": "https://clarencehousekeswick.co.uk/"
  },
  {
    "id": 3431516252,
    "type": "node",
    "tourism": "guest_house",
    "name": "Cherry Trees",
    "lat": 54.5990427,
    "lon": -3.1312905,
    "amenity": null,
    "brand": null,
    "brand_wikidata": null,
    "fhrs_id": null,
    "addr_housename": null,
    "addr_street": "Eskin Street",
    "addr_city": "Keswick",
    "addr_postcode": "CA12 4DQ",
    "addr_country": null,
    "phone": null,
    "website": null
  },
  {
    "id": 3431516253,
    "type": "node",
    "tourism": "guest_house",
    "name": "Braemar",
    "lat": 54.5990633,
    "lon": -3.1316478,
    "amenity": null,
    "brand": null,
    "brand_wikidata": null,
    "fhrs_id": null,
    "addr_housename": null,
    "addr_street": "Eskin Street",
    "addr_city": "Keswick",
    "addr_postcode": "CA12 4DQ",
    "addr_country": null,
    "phone": "+44 17687 73743",
    "website": "www.braemar-guesthouse.co.uk"
  },
  {
    "id": 3431516254,
    "type": "node",
    "tourism": "guest_house",
    "name": "Amble House",
    "lat": 54.599105,
    "lon": -3.1316454,
    "amenity": null,
    "brand": null,
    "brand_wikidata": null,
    "fhrs_id": null,
    "addr_housename": null,
    "addr_street": "Eskin Street",
    "addr_city": "Keswick",
    "addr_postcode": "CA12 4DQ",
    "addr_country": null,
    "phone": "+44 17687 73288",
    "website": "https://www.amblehouse.co.uk/"
  },
  {
    "id": 3431546228,
    "type": "node",
    "tourism": "guest_house",
    "name": "Damson Lodge",
    "lat": 54.5991632,
    "lon": -3.1316304,
    "amenity": null,
    "brand": null,
    "brand_wikidata": null,
    "fhrs_id": null,
    "addr_housename": null,
    "addr_street": "Eskin Street",
    "addr_city": "Keswick",
    "addr_postcode": "CA12 4DQ",
    "addr_country": null,
    "phone": "+44 17687 75547",
    "website": "https://www.damsonlodge.co.uk/"
  },
  {
    "id": 3431546229,
    "type": "node",
    "tourism": "guest_house",
    "name": "Melbreak house",
    "lat": 54.5995053,
    "lon": -3.1316057,
    "amenity": null,
    "brand": null,
    "brand_wikidata": null,
    "fhrs_id": null,
    "addr_housename": null,
    "addr_street": "Church Street",
    "addr_city": "Keswick",
    "addr_postcode": "CA12 4DX",
    "addr_country": null,
    "phone": "+44 17687 73398",
    "website": "https://www.melbreakhouse.co.uk/"
  },
  {
    "id": 3431546231,
    "type": "node",
    "tourism": "guest_house",
    "name": "Cranford House",
    "lat": 54.5997079,
    "lon": -3.1310998,
    "amenity": null,
    "brand": null,
    "brand_wikidata": null,
    "fhrs_id": null,
    "addr_housename": null,
    "addr_street": "Eskin Street",
    "addr_city": "Keswick",
    "addr_postcode": "CA12 4DG",
    "addr_country": null,
    "phone": "+44 17687 71017",
    "website": "www.cranfordhouse.co.uk"
  },
  {
    "id": 3431546232,
    "type": "node",
    "tourism": "guest_house",
    "name": "Rowan Tree",
    "lat": 54.5995851,
    "lon": -3.1315263,
    "amenity": null,
    "brand": null,
    "brand_wikidata": null,
    "fhrs_id": "1550062",
    "addr_housename": null,
    "addr_street": "Eskin Street",
    "addr_city": "Keswick",
    "addr_postcode": "CA12 4DG",
    "addr_country": null,
    "phone": "+44 17687 74861",
    "website": "https://www.rowantreekeswick.co.uk/"
  },
  {
    "id": 3431546233,
    "type": "node",
    "tourism": "guest_house",
    "name": "Larry's Lodge",
    "lat": 54.5996514,
    "lon": -3.131517,
    "amenity": null,
    "brand": null,
    "brand_wikidata": null,
    "fhrs_id": null,
    "addr_housename": null,
    "addr_street": "Eskin Street",
    "addr_city": "Keswick",
    "addr_postcode": "CA12 4DG",
    "addr_country": null,
    "phone": "+44 17687 73965",
    "website": "https://larryslodge.co.uk/"
  },
  {
    "id": 3431546234,
    "type": "node",
    "tourism": "guest_house",
    "name": "Squirrel Lodge Guest House",
    "lat": 54.5997366,
    "lon": -3.1314983,
    "amenity": null,
    "brand": null,
    "brand_wikidata": null,
    "fhrs_id": null,
    "addr_housename": null,
    "addr_street": "Eskin Street",
    "addr_city": "Keswick",
    "addr_postcode": "CA12 4DG",
    "addr_country": null,
    "phone": "+44 17687 71189",
    "website": "https://www.squirrellodge.co.uk/"
  },
  {
    "id": 3431546235,
    "type": "node",
    "tourism": "guest_house",
    "name": "Littlefield",
    "lat": 54.6000288,
    "lon": -3.1311224,
    "amenity": null,
    "brand": null,
    "brand_wikidata": null,
    "fhrs_id": "1549776",
    "addr_housename": null,
    "addr_street": "Eskin Street",
    "addr_city": "Keswick",
    "addr_postcode": "CA12 4DG",
    "addr_country": null,
    "phone": "+44 17687 72949",
    "website": "www.littlefield-keswick.co.uk"
  },
  {
    "id": 3431546236,
    "type": "node",
    "tourism": "guest_house",
    "name": "Hawcliffe House",
    "lat": 54.5999842,
    "lon": -3.1311341,
    "amenity": null,
    "brand": null,
    "brand_wikidata": null,
    "fhrs_id": "1549775",
    "addr_housename": null,
    "addr_street": "Eskin Street",
    "addr_city": "Keswick",
    "addr_postcode": "CA12 4DG",
    "addr_country": null,
    "phone": "+44 17687 73250",
    "website": "www.hawcliffehouse.co.uk"
  },
  {
    "id": 3431546237,
    "type": "node",
    "tourism": "guest_house",
    "name": "Yew Tree",
    "lat": 54.5999341,
    "lon": -3.1311364,
    "amenity": null,
    "brand": null,
    "brand_wikidata": null,
    "fhrs_id": null,
    "addr_housename": null,
    "addr_street": "Eskin Street",
    "addr_city": "Keswick",
    "addr_postcode": "CA12 4DG",
    "addr_country": null,
    "phone": "+44 17687 74323",
    "website": "www.yewtreekeswick.co.uk"
  },
  {
    "id": 3431546251,
    "type": "node",
    "tourism": "guest_house",
    "name": "Portland House",
    "lat": 54.5995683,
    "lon": -3.1324599,
    "amenity": null,
    "brand": null,
    "brand_wikidata": null,
    "fhrs_id": "1549639",
    "addr_housename": null,
    "addr_street": "Leonard Street",
    "addr_city": "Keswick",
    "addr_postcode": "CA12 4EL",
    "addr_country": null,
    "phone": "+44 17687 74230",
    "website": "https://www.portlandhouse.net/"
  },
  {
    "id": 3431548467,
    "type": "node",
    "tourism": "guest_house",
    "name": "Greystoke House",
    "lat": 54.5998662,
    "lon": -3.1326347,
    "amenity": null,
    "brand": null,
    "brand_wikidata": null,
    "fhrs_id": "1549641",
    "addr_housename": "Greystoke House",
    "addr_street": "Leonard Street",
    "addr_city": "Keswick",
    "addr_postcode": "CA12 4EL",
    "addr_country": null,
    "phone": "+44 17687 72603",
    "website": "https://greystokeguesthouse.co.uk/"
  },
  {
    "id": 3431548469,
    "type": "node",
    "tourism": "guest_house",
    "name": "Herdwick Guest House",
    "lat": 54.5998109,
    "lon": -3.1326002,
    "amenity": null,
    "brand": null,
    "brand_wikidata": null,
    "fhrs_id": "1550470",
    "addr_housename": null,
    "addr_street": "Leonard Street",
    "addr_city": "Keswick",
    "addr_postcode": "CA12 4EL",
    "addr_country": null,
    "phone": "+44 17687 72772",
    "website": "https://herdwickguesthouse.co.uk/"
  },
  {
    "id": 3431548471,
    "type": "node",
    "tourism": "guest_house",
    "name": "Leonard Field House",
    "lat": 54.6001922,
    "lon": -3.1328243,
    "amenity": null,
    "brand": null,
    "brand_wikidata": null,
    "fhrs_id": "1549640",
    "addr_housename": null,
    "addr_street": "Leonard Street",
    "addr_city": "Keswick",
    "addr_postcode": "CA12 4EJ",
    "addr_country": null,
    "phone": "+44 17687 74170",
    "website": "www.leonardsfieldhouse.co.uk"
  },
  {
    "id": 3431576158,
    "type": "node",
    "tourism": "guest_house",
    "name": "Dolly Waggon",
    "lat": 54.6002768,
    "lon": -3.1318106,
    "amenity": null,
    "brand": null,
    "brand_wikidata": null,
    "fhrs_id": "1549529",
    "addr_housename": null,
    "addr_street": "Helvellyn Street",
    "addr_city": "Keswick",
    "addr_postcode": "CA12 4EN",
    "addr_country": null,
    "phone": "+44 17687 73593",
    "website": "https://dollywaggon.co.uk/"
  },
  {
    "id": 3431576159,
    "type": "node",
    "tourism": "guest_house",
    "name": "Glencoe",
    "lat": 54.600314,
    "lon": -3.1316162,
    "amenity": null,
    "brand": null,
    "brand_wikidata": null,
    "fhrs_id": "1549777",
    "addr_housename": null,
    "addr_street": "Helvellyn Street",
    "addr_city": "Keswick",
    "addr_postcode": "CA12 4EN",
    "addr_country": null,
    "phone": "+44 17687 71016",
    "website": "https://www.glencoeguesthouse.co.uk/"
  },
  {
    "id": 3431576160,
    "type": "node",
    "tourism": "guest_house",
    "name": "Anderville",
    "lat": 54.6002992,
    "lon": -3.1317168,
    "amenity": null,
    "brand": null,
    "brand_wikidata": null,
    "fhrs_id": null,
    "addr_housename": null,
    "addr_street": "Helvellyn Street",
    "addr_city": "Keswick",
    "addr_postcode": "CA12 4EN",
    "addr_country": null,
    "phone": "+44 17687 72578",
    "website": null
  },
  {
    "id": 3431576161,
    "type": "node",
    "tourism": "guest_house",
    "name": "Rivendell",
    "lat": 54.6003419,
    "lon": -3.1315244,
    "amenity": null,
    "brand": null,
    "brand_wikidata": null,
    "fhrs_id": "1549778",
    "addr_housename": null,
    "addr_street": "Helvellyn Street",
    "addr_city": "Keswick",
    "addr_postcode": "CA12 4EN",
    "addr_country": null,
    "phone": "+44 17687 73822",
    "website": "https://www.rivendellguesthouse.com/"
  },
  {
    "id": 3431576162,
    "type": "node",
    "tourism": "guest_house",
    "name": "Oakthwaite House",
    "lat": 54.600473,
    "lon": -3.1309059,
    "amenity": null,
    "brand": null,
    "brand_wikidata": null,
    "fhrs_id": null,
    "addr_housename": null,
    "addr_street": null,
    "addr_city": null,
    "addr_postcode": null,
    "addr_country": null,
    "phone": "+44 17687 72398",
    "website": null
  },
  {
    "id": 3431576163,
    "type": "node",
    "tourism": "guest_house",
    "name": "Chiltlee",
    "lat": 54.6005949,
    "lon": -3.1303252,
    "amenity": null,
    "brand": null,
    "brand_wikidata": null,
    "fhrs_id": null,
    "addr_housename": null,
    "addr_street": null,
    "addr_city": null,
    "addr_postcode": null,
    "addr_country": null,
    "phone": "+44 17687 74862",
    "website": null
  },
  {
    "id": 3431576172,
    "type": "node",
    "tourism": "guest_house",
    "name": "Salisbury",
    "lat": 54.6007648,
    "lon": -3.1313007,
    "amenity": null,
    "brand": null,
    "brand_wikidata": null,
    "fhrs_id": "1550259",
    "addr_housename": null,
    "addr_street": "Blencathra Street",
    "addr_city": "Keswick",
    "addr_postcode": "CA12 4HT",
    "addr_country": null,
    "phone": "+44 17687 72230",
    "website": "www.salisburyguesthouse.com"
  },
  {
    "id": 3431576173,
    "type": "node",
    "tourism": "guest_house",
    "name": "Winchester House",
    "lat": 54.6009451,
    "lon": -3.1303826,
    "amenity": null,
    "brand": null,
    "brand_wikidata": null,
    "fhrs_id": "1549447",
    "addr_housename": null,
    "addr_street": "Blencathra Street",
    "addr_city": "Keswick",
    "addr_postcode": "CA12 4HT",
    "addr_country": null,
    "phone": "+44 17687 73664",
    "website": "https://www.the-winchester.co.uk/"
  },
  {
    "id": 3431576174,
    "type": "node",
    "tourism": "guest_house",
    "name": "Cragside",
    "lat": 54.6013728,
    "lon": -3.129459,
    "amenity": null,
    "brand": null,
    "brand_wikidata": null,
    "fhrs_id": "1549688",
    "addr_housename": null,
    "addr_street": "Blencathra Street",
    "addr_city": "Keswick",
    "addr_postcode": "CA12 4HX",
    "addr_country": null,
    "phone": "+44 17687 73344",
    "website": "https://www.cragside-keswick.co.uk/"
  },
  {
    "id": 3431600883,
    "type": "node",
    "tourism": "guest_house",
    "name": "Rooms 36",
    "lat": 54.5987776,
    "lon": -3.1380619,
    "amenity": null,
    "brand": null,
    "brand_wikidata": null,
    "fhrs_id": null,
    "addr_housename": null,
    "addr_street": "Lake Road",
    "addr_city": "Keswick",
    "addr_postcode": "CA12 5DQ",
    "addr_country": null,
    "phone": "+44 17687 72764",
    "website": "https://www.rooms36.co.uk/"
  },
  {
    "id": 3431600884,
    "type": "node",
    "tourism": "guest_house",
    "name": "Albany",
    "lat": 54.5987325,
    "lon": -3.1381858,
    "amenity": null,
    "brand": null,
    "brand_wikidata": null,
    "fhrs_id": null,
    "addr_housename": null,
    "addr_street": "Lake Road",
    "addr_city": "Keswick",
    "addr_postcode": "CA12 5DQ",
    "addr_country": null,
    "phone": "+44 1678 773105",
    "website": null
  },
  {
    "id": 3431600885,
    "type": "node",
    "tourism": "guest_house",
    "name": "Lakeside House",
    "lat": 54.5986812,
    "lon": -3.1383097,
    "amenity": null,
    "brand": null,
    "brand_wikidata": null,
    "fhrs_id": "267439",
    "addr_housename": null,
    "addr_street": "Lake Road",
    "addr_city": "Keswick",
    "addr_postcode": "CA12 5DQ",
    "addr_country": null,
    "phone": "+44 1768 772868",
    "website": "https://www.lakesidehouse.co.uk/"
  },
  {
    "id": 3431600887,
    "type": "node",
    "tourism": "guest_house",
    "name": "West View",
    "lat": 54.5989103,
    "lon": -3.1384976,
    "amenity": null,
    "brand": null,
    "brand_wikidata": null,
    "fhrs_id": "1549794",
    "addr_housename": "West View",
    "addr_street": "The Heads",
    "addr_city": "Keswick",
    "addr_postcode": "CA12 5ES",
    "addr_country": null,
    "phone": "+44 17687 73638",
    "website": "https://www.westviewkeswick.co.uk/"
  },
  {
    "id": 3431600889,
    "type": "node",
    "tourism": "guest_house",
    "name": "Howe Keld",
    "lat": 54.5992306,
    "lon": -3.138671,
    "amenity": null,
    "brand": null,
    "brand_wikidata": null,
    "fhrs_id": "907192",
    "addr_housename": null,
    "addr_street": "The Heads",
    "addr_city": "Keswick",
    "addr_postcode": "CA12 5ES",
    "addr_country": null,
    "phone": "+44 17687 72417",
    "website": "https://howekeld.co.uk/"
  },
  {
    "id": 3431600890,
    "type": "node",
    "tourism": "guest_house",
    "name": "Fellpack House",
    "lat": 54.5991507,
    "lon": -3.1389975,
    "amenity": null,
    "brand": null,
    "brand_wikidata": null,
    "fhrs_id": null,
    "addr_housename": null,
    "addr_street": "The Heads",
    "addr_city": "Keswick",
    "addr_postcode": "CA12 5ER",
    "addr_country": null,
    "phone": "+44 17687 72106",
    "website": "https://www.fellpack.co.uk/"
  },
  {
    "id": 3431600891,
    "type": "node",
    "tourism": "guest_house",
    "name": "Burleigh Mead",
    "lat": 54.5991566,
    "lon": -3.1391418,
    "amenity": null,
    "brand": null,
    "brand_wikidata": null,
    "fhrs_id": null,
    "addr_housename": null,
    "addr_street": "The Heads",
    "addr_city": "Keswick",
    "addr_postcode": "CA12 5ER",
    "addr_country": null,
    "phone": "+44 17687 75935",
    "website": "www.burleighmead.co.uk"
  },
  {
    "id": 3431600892,
    "type": "node",
    "tourism": "guest_house",
    "name": "Berkeley House",
    "lat": 54.5991672,
    "lon": -3.1392759,
    "amenity": null,
    "brand": null,
    "brand_wikidata": null,
    "fhrs_id": null,
    "addr_housename": null,
    "addr_street": "The Heads",
    "addr_city": "Keswick",
    "addr_postcode": "CA12 5ER",
    "addr_country": null,
    "phone": "+44 17687 74222",
    "website": "https://berkeley-house.hotels-lake-district.com/en/"
  },
  {
    "id": 3431601793,
    "type": "node",
    "tourism": "guest_house",
    "name": "Brundholme",
    "lat": 54.5991731,
    "lon": -3.1394304,
    "amenity": null,
    "brand": null,
    "brand_wikidata": null,
    "fhrs_id": "1549456",
    "addr_housename": null,
    "addr_street": "The Heads",
    "addr_city": "Keswick",
    "addr_postcode": "CA12 5ER",
    "addr_country": null,
    "phone": "+44 17687 73305",
    "website": "www.brundholme.co.uk"
  },
  {
    "id": 3431601794,
    "type": "node",
    "tourism": "hotel",
    "name": "Crow Park Hotel",
    "lat": 54.5991919,
    "lon": -3.1396642,
    "amenity": null,
    "brand": null,
    "brand_wikidata": null,
    "fhrs_id": null,
    "addr_housename": null,
    "addr_street": "The Heads",
    "addr_city": "Keswick",
    "addr_postcode": "CA12 5ER",
    "addr_country": null,
    "phone": "+44 17687 72208",
    "website": "http://crowpark.co.uk/"
  },
  {
    "id": 3431601795,
    "type": "node",
    "tourism": "hotel",
    "name": "Highfield",
    "lat": 54.5992302,
    "lon": -3.1399704,
    "amenity": null,
    "brand": null,
    "brand_wikidata": null,
    "fhrs_id": null,
    "addr_housename": null,
    "addr_street": "The Heads",
    "addr_city": "Keswick",
    "addr_postcode": "CA12 5ES",
    "addr_country": null,
    "phone": "+44 17687 72508",
    "website": "https://highfieldkeswick.co.uk/"
  },
  {
    "id": 3431601796,
    "type": "node",
    "tourism": "guest_house",
    "name": "HillCrest",
    "lat": 54.5992355,
    "lon": -3.1402435,
    "amenity": null,
    "brand": null,
    "brand_wikidata": null,
    "fhrs_id": "1549443",
    "addr_housename": null,
    "addr_street": "The Heads",
    "addr_city": "Keswick",
    "addr_postcode": "CA12 5ER",
    "addr_country": null,
    "phone": "+44 17687 72179",
    "website": "https://www.hillcrest22keswick.co.uk/"
  },
  {
    "id": 3431601797,
    "type": "node",
    "tourism": "guest_house",
    "name": "Appletrees",
    "lat": 54.5992614,
    "lon": -3.1404061,
    "amenity": null,
    "brand": null,
    "brand_wikidata": null,
    "fhrs_id": "1550688",
    "addr_housename": null,
    "addr_street": "The Heads",
    "addr_city": "Keswick",
    "addr_postcode": "CA12 5ER",
    "addr_country": null,
    "phone": "+44 17687 80400",
    "website": "https://www.appletreeskeswick.com/"
  },
  {
    "id": 3442451098,
    "type": "node",
    "tourism": "guest_house",
    "name": "Lakeland View",
    "lat": 54.6044141,
    "lon": -3.1445507,
    "amenity": null,
    "brand": null,
    "brand_wikidata": null,
    "fhrs_id": "1550699",
    "addr_housename": null,
    "addr_street": "High Hill",
    "addr_city": "Keswick",
    "addr_postcode": "CA12 5NY",
    "addr_country": null,
    "phone": "+44 17687 72555",
    "website": "https://www.lakelandview.net/"
  },
  {
    "id": 3442451099,
    "type": "node",
    "tourism": "guest_house",
    "name": "Riverside Guest House",
    "lat": 54.6054717,
    "lon": -3.1439479,
    "amenity": null,
    "brand": null,
    "brand_wikidata": null,
    "fhrs_id": null,
    "addr_housename": null,
    "addr_street": "Crosthwaite Road",
    "addr_city": "Keswick",
    "addr_postcode": "CA12 5PG",
    "addr_country": null,
    "phone": "+44 17687 73439",
    "website": null
  },
  {
    "id": 3442704479,
    "type": "node",
    "tourism": "guest_house",
    "name": "Croftland Cottages",
    "lat": 54.6184613,
    "lon": -3.2036506,
    "amenity": null,
    "brand": null,
    "brand_wikidata": null,
    "fhrs_id": null,
    "addr_housename": null,
    "addr_street": null,
    "addr_city": "Thornthwaite",
    "addr_postcode": "CA12 5SA",
    "addr_country": null,
    "phone": "+44 17687 78225",
    "website": "https://www.croftlandscottages.co.uk/"
  },
  {
    "id": 3442708575,
    "type": "node",
    "tourism": "guest_house",
    "name": "Jenkin Hill Cottage",
    "lat": 54.6200474,
    "lon": -3.2035046,
    "amenity": null,
    "brand": null,
    "brand_wikidata": null,
    "fhrs_id": null,
    "addr_housename": null,
    "addr_street": null,
    "addr_city": "Thornthwaite",
    "addr_postcode": "CA12 5SG",
    "addr_country": null,
    "phone": "+44 17687 78443",
    "website": "http://www.jenkinhill.co.uk/"
  },
  {
    "id": 3442716241,
    "type": "node",
    "tourism": "guest_house",
    "name": "Jasmine Cottage",
    "lat": 54.6176543,
    "lon": -3.2036942,
    "amenity": null,
    "brand": null,
    "brand_wikidata": null,
    "fhrs_id": null,
    "addr_housename": null,
    "addr_street": null,
    "addr_city": "Thornthwaite",
    "addr_postcode": "CA12 5SA",
    "addr_country": null,
    "phone": "+44 1900 822001",
    "website": "http://www.jasminecottagekeswick.co.uk/"
  },
  {
    "id": 3442716242,
    "type": "node",
    "tourism": "guest_house",
    "name": "Gallery Mews Cottages",
    "lat": 54.6177542,
    "lon": -3.2041594,
    "amenity": null,
    "brand": null,
    "brand_wikidata": null,
    "fhrs_id": null,
    "addr_housename": null,
    "addr_street": null,
    "addr_city": "Thornthwaite",
    "addr_postcode": "CA12 5SA",
    "addr_country": null,
    "phone": "+44 17687 78248",
    "website": "http://www.gallerymewscottages.co.uk/"
  },
  {
    "id": 3442717364,
    "type": "node",
    "tourism": "guest_house",
    "name": "Riverside Cottage",
    "lat": 54.6159855,
    "lon": -3.2063941,
    "amenity": null,
    "brand": null,
    "brand_wikidata": null,
    "fhrs_id": null,
    "addr_housename": null,
    "addr_street": null,
    "addr_city": "Thornthwaite",
    "addr_postcode": "CA12 5SE",
    "addr_country": null,
    "phone": "+44 17687 80732",
    "website": "https://riversidecottage-thornthwaite.co.uk/"
  },
  {
    "id": 3547647390,
    "type": "node",
    "tourism": "guest_house",
    "name": "Banerigg Guest House",
    "lat": 54.4481925,
    "lon": -3.0151052,
    "amenity": null,
    "brand": null,
    "brand_wikidata": null,
    "fhrs_id": "299904",
    "addr_housename": null,
    "addr_street": "Keswick Road",
    "addr_city": "Grasmere",
    "addr_postcode": "LA22 9PW",
    "addr_country": null,
    "phone": "+44 15394 35204",
    "website": "https://banerigg.co.uk/"
  },
  {
    "id": 3566537474,
    "type": "node",
    "tourism": "hotel",
    "name": "Manesty Holiday Cottages",
    "lat": 54.5559036,
    "lon": -3.1607002,
    "amenity": null,
    "brand": null,
    "brand_wikidata": null,
    "fhrs_id": null,
    "addr_housename": null,
    "addr_street": null,
    "addr_city": "Keswick",
    "addr_postcode": "CA12 5UG",
    "addr_country": null,
    "phone": "+44 17687 77216",
    "website": "www.manesty.com"
  },
  {
    "id": 3598253381,
    "type": "node",
    "tourism": "camp_site",
    "name": "Aragon Camping",
    "lat": 54.5377732,
    "lon": -2.7572217,
    "amenity": null,
    "brand": null,
    "brand_wikidata": null,
    "fhrs_id": null,
    "addr_housename": null,
    "addr_street": null,
    "addr_city": null,
    "addr_postcode": null,
    "addr_country": null,
    "phone": null,
    "website": null
  },
  {
    "id": 3625196866,
    "type": "node",
    "tourism": "guest_house",
    "name": "Low Cock How",
    "lat": 54.5153066,
    "lon": -3.458473,
    "amenity": null,
    "brand": null,
    "brand_wikidata": null,
    "fhrs_id": null,
    "addr_housename": null,
    "addr_street": null,
    "addr_city": null,
    "addr_postcode": null,
    "addr_country": null,
    "phone": null,
    "website": null
  },
  {
    "id": 3757866634,
    "type": "node",
    "tourism": "guest_house",
    "name": "Powe House",
    "lat": 54.6030237,
    "lon": -3.1654106,
    "amenity": null,
    "brand": null,
    "brand_wikidata": null,
    "fhrs_id": null,
    "addr_housename": null,
    "addr_street": null,
    "addr_city": "Portinscale",
    "addr_postcode": "CA12 5RW",
    "addr_country": null,
    "phone": null,
    "website": "https://www.powehouse.com/index.html"
  },
  {
    "id": 3775717460,
    "type": "node",
    "tourism": "guest_house",
    "name": "Highside Farm B&B",
    "lat": 54.6647866,
    "lon": -3.1877713,
    "amenity": null,
    "brand": null,
    "brand_wikidata": null,
    "fhrs_id": null,
    "addr_housename": null,
    "addr_street": null,
    "addr_city": null,
    "addr_postcode": "CA12 4QG",
    "addr_country": null,
    "phone": "+44 1768 776952",
    "website": "https://highside.co.uk/"
  },
  {
    "id": 3848641011,
    "type": "node",
    "tourism": "guest_house",
    "name": "Yew Tree Farm",
    "lat": 54.5229083,
    "lon": -3.1492591,
    "amenity": null,
    "brand": null,
    "brand_wikidata": null,
    "fhrs_id": null,
    "addr_housename": null,
    "addr_street": null,
    "addr_city": "Rosthwaite",
    "addr_postcode": "CA12 5XB",
    "addr_country": null,
    "phone": "+44 17687 77675",
    "website": "https://borrowdaleyewtreefarm.co.uk/"
  },
  {
    "id": 3848680740,
    "type": "node",
    "tourism": "guest_house",
    "name": "Nook Farm",
    "lat": 54.5227508,
    "lon": -3.1496607,
    "amenity": null,
    "brand": null,
    "brand_wikidata": null,
    "fhrs_id": "267183",
    "addr_housename": null,
    "addr_street": null,
    "addr_city": "Rosthwaite",
    "addr_postcode": "CA12 5XB",
    "addr_country": null,
    "phone": "+44 17687 77677",
    "website": "http://www.nookfarmborrowdale.co.uk/"
  },
  {
    "id": 4200600041,
    "type": "node",
    "tourism": "guest_house",
    "name": "Birkrigg Farm",
    "lat": 54.5691282,
    "lon": -3.1955704,
    "amenity": null,
    "brand": null,
    "brand_wikidata": null,
    "fhrs_id": null,
    "addr_housename": null,
    "addr_street": null,
    "addr_city": null,
    "addr_postcode": null,
    "addr_country": null,
    "phone": "+44 17687 78278",
    "website": "https://birkriggcottages.co.uk/"
  },
  {
    "id": 4227870986,
    "type": "node",
    "tourism": "guest_house",
    "name": "Crow How Country Guest House",
    "lat": 54.4388604,
    "lon": -2.9746593,
    "amenity": null,
    "brand": null,
    "brand_wikidata": null,
    "fhrs_id": "299053",
    "addr_housename": null,
    "addr_street": "Rydal Road",
    "addr_city": "Ambleside",
    "addr_postcode": "LA22 9PN",
    "addr_country": null,
    "phone": "+44 15394 32193",
    "website": "https://www.crowhow.co.uk/"
  },
  {
    "id": 4228050644,
    "type": "node",
    "tourism": "guest_house",
    "name": "Haven Cottage",
    "lat": 54.4348155,
    "lon": -2.9668352,
    "amenity": null,
    "brand": null,
    "brand_wikidata": null,
    "fhrs_id": "299143",
    "addr_housename": "Haven Cottage",
    "addr_street": "Rydal Road",
    "addr_city": "Ambleside",
    "addr_postcode": "LA22 9AY",
    "addr_country": null,
    "phone": "+44 15394 33270",
    "website": "https://haven-cottage.co.uk/"
  },
  {
    "id": 4228057157,
    "type": "node",
    "tourism": "guest_house",
    "name": "The Anchorage",
    "lat": 54.4343961,
    "lon": -2.9653834,
    "amenity": null,
    "brand": null,
    "brand_wikidata": null,
    "fhrs_id": null,
    "addr_housename": null,
    "addr_street": "Rydal Road",
    "addr_city": "Ambleside",
    "addr_postcode": "LA22 9AY",
    "addr_country": null,
    "phone": "+44 1539 432 046",
    "website": "http://www.theanchorageguesthouse.co.uk/"
  },
  {
    "id": 4228214589,
    "type": "node",
    "tourism": "guest_house",
    "name": "Rooms At The Apple Pie",
    "lat": 54.4329759,
    "lon": -2.9637345,
    "amenity": null,
    "brand": null,
    "brand_wikidata": null,
    "fhrs_id": null,
    "addr_housename": "Plane Tree House",
    "addr_street": "Rydal Road",
    "addr_city": "Ambleside",
    "addr_postcode": "LA22 9AN",
    "addr_country": null,
    "phone": "+44 15394 33679",
    "website": "https://www.applepieambleside.co.uk/accommodation/rooms"
  },
  {
    "id": 4228441451,
    "type": "node",
    "tourism": "guest_house",
    "name": "Claremont House",
    "lat": 54.4309069,
    "lon": -2.9647531,
    "amenity": null,
    "brand": null,
    "brand_wikidata": null,
    "fhrs_id": "299468",
    "addr_housename": null,
    "addr_street": "Compston Road",
    "addr_city": "Ambleside",
    "addr_postcode": "LA22 9DJ",
    "addr_country": null,
    "phone": "+44 15394 33448",
    "website": null
  },
  {
    "id": 4228441456,
    "type": "node",
    "tourism": "guest_house",
    "name": "Thorneyfield Guest House",
    "lat": 54.4308626,
    "lon": -2.9647876,
    "amenity": null,
    "brand": null,
    "brand_wikidata": null,
    "fhrs_id": "441633",
    "addr_housename": null,
    "addr_street": "Compston Road",
    "addr_city": "Ambleside",
    "addr_postcode": "LA22 9DJ",
    "addr_country": null,
    "phone": null,
    "website": null
  },
  {
    "id": 4228441469,
    "type": "node",
    "tourism": "guest_house",
    "name": "The Gables",
    "lat": 54.4305287,
    "lon": -2.9650961,
    "amenity": null,
    "brand": null,
    "brand_wikidata": null,
    "fhrs_id": "441568",
    "addr_housename": null,
    "addr_street": "Church Walk",
    "addr_city": "Ambleside",
    "addr_postcode": "LA22 9DJ",
    "addr_country": null,
    "phone": "+44 15394 33272",
    "website": "https://www.thegables-ambleside.co.uk/"
  },
  {
    "id": 4231551433,
    "type": "node",
    "tourism": "guest_house",
    "name": "The Old Vicarage B&B",
    "lat": 54.4316789,
    "lon": -2.9656468,
    "amenity": null,
    "brand": null,
    "brand_wikidata": null,
    "fhrs_id": "299446",
    "addr_housename": null,
    "addr_street": "Vicarage Road",
    "addr_city": "Ambleside",
    "addr_postcode": "LA22 9DH",
    "addr_country": null,
    "phone": "+44 15394 33364",
    "website": "https://oldvicarageambleside.co.uk/"
  },
  {
    "id": 4231617179,
    "type": "node",
    "tourism": "guest_house",
    "name": "Linda's B&B Bunkhouse",
    "lat": 54.4307758,
    "lon": -2.9645509,
    "amenity": null,
    "brand": null,
    "brand_wikidata": null,
    "fhrs_id": "441629",
    "addr_housename": null,
    "addr_street": "Compston Road",
    "addr_city": "Ambleside",
    "addr_postcode": "LA22 9DJ",
    "addr_country": null,
    "phone": "+44 15394 32999",
    "website": null
  },
  {
    "id": 4231626845,
    "type": "node",
    "tourism": "guest_house",
    "name": "Compston House",
    "lat": 54.4302022,
    "lon": -2.9643746,
    "amenity": null,
    "brand": null,
    "brand_wikidata": null,
    "fhrs_id": "299052",
    "addr_housename": null,
    "addr_street": "Compston Road",
    "addr_city": "Ambleside",
    "addr_postcode": "LA22 9DJ",
    "addr_country": null,
    "phone": "+44 15394 32305",
    "website": null
  },
  {
    "id": 4231626846,
    "type": "node",
    "tourism": "guest_house",
    "name": "Norwood House",
    "lat": 54.430266,
    "lon": -2.9642791,
    "amenity": null,
    "brand": null,
    "brand_wikidata": null,
    "fhrs_id": "299453",
    "addr_housename": null,
    "addr_street": "Church Street",
    "addr_city": "Ambleside",
    "addr_postcode": "LA22 0BT",
    "addr_country": null,
    "phone": null,
    "website": null
  },
  {
    "id": 4231626847,
    "type": "node",
    "tourism": "guest_house",
    "name": "Hillsdale",
    "lat": 54.4303144,
    "lon": -2.9642171,
    "amenity": null,
    "brand": null,
    "brand_wikidata": null,
    "fhrs_id": "299145",
    "addr_housename": null,
    "addr_street": "Church Street",
    "addr_city": "Ambleside",
    "addr_postcode": "LA22 0BT",
    "addr_country": null,
    "phone": null,
    "website": null
  },
  {
    "id": 4231626848,
    "type": "node",
    "tourism": "guest_house",
    "name": "Holme Lea",
    "lat": 54.4304277,
    "lon": -2.964088,
    "amenity": null,
    "brand": null,
    "brand_wikidata": null,
    "fhrs_id": null,
    "addr_housename": null,
    "addr_street": "Compston Street",
    "addr_city": "Ambleside",
    "addr_postcode": null,
    "addr_country": null,
    "phone": null,
    "website": null
  },
  {
    "id": 4231682896,
    "type": "node",
    "tourism": "guest_house",
    "name": "Ambleside House Guest House",
    "lat": 54.4307075,
    "lon": -2.9631584,
    "amenity": null,
    "brand": null,
    "brand_wikidata": null,
    "fhrs_id": null,
    "addr_housename": null,
    "addr_street": "Church Street",
    "addr_city": "Ambleside",
    "addr_postcode": "LA22 0BU",
    "addr_country": null,
    "phone": null,
    "website": null
  },
  {
    "id": 4231682946,
    "type": "node",
    "tourism": "hotel",
    "name": "The Temperance Inn",
    "lat": 54.4305656,
    "lon": -2.9623923,
    "amenity": null,
    "brand": null,
    "brand_wikidata": null,
    "fhrs_id": "299155",
    "addr_housename": null,
    "addr_street": "Lake Road",
    "addr_city": "Ambleside",
    "addr_postcode": "LA22 0BH",
    "addr_country": null,
    "phone": null,
    "website": "https://www.inncollectiongroup.com/temperance-inn/"
  },
  {
    "id": 4232008156,
    "type": "node",
    "tourism": "guest_house",
    "name": "High Dale House",
    "lat": 54.4304733,
    "lon": -2.962048,
    "amenity": null,
    "brand": null,
    "brand_wikidata": null,
    "fhrs_id": "299186",
    "addr_housename": null,
    "addr_street": "Lake Road",
    "addr_city": "Ambleside",
    "addr_postcode": "LA22 0AD",
    "addr_country": null,
    "phone": null,
    "website": null
  },
  {
    "id": 4232042978,
    "type": "node",
    "tourism": "guest_house",
    "name": "Brantfell",
    "lat": 54.4296592,
    "lon": -2.9646932,
    "amenity": null,
    "brand": null,
    "brand_wikidata": null,
    "fhrs_id": "299975",
    "addr_housename": null,
    "addr_street": "Rothay Road",
    "addr_city": "Ambleside",
    "addr_postcode": "LA22 0EE",
    "addr_country": null,
    "phone": null,
    "website": null
  },
  {
    "id": 4232042979,
    "type": "node",
    "tourism": "guest_house",
    "name": "Rysdale",
    "lat": 54.4297366,
    "lon": -2.9645671,
    "amenity": null,
    "brand": null,
    "brand_wikidata": null,
    "fhrs_id": "299493",
    "addr_housename": null,
    "addr_street": "Rothay Road",
    "addr_city": "Ambleside",
    "addr_postcode": "LA22 0EE",
    "addr_country": null,
    "phone": null,
    "website": null
  },
  {
    "id": 4232042980,
    "type": "node",
    "tourism": "guest_house",
    "name": "Amboseli Lodge",
    "lat": 54.4298439,
    "lon": -2.9644527,
    "amenity": null,
    "brand": null,
    "brand_wikidata": null,
    "fhrs_id": "1380397",
    "addr_housename": "Amboseli Lodge",
    "addr_street": "Rothay Road",
    "addr_city": "Ambleside",
    "addr_postcode": "LA22 0EE",
    "addr_country": null,
    "phone": null,
    "website": null
  },
  {
    "id": 4232042981,
    "type": "node",
    "tourism": "guest_house",
    "name": "Lacet House",
    "lat": 54.4299553,
    "lon": -2.9642543,
    "amenity": null,
    "brand": null,
    "brand_wikidata": null,
    "fhrs_id": "328677",
    "addr_housename": null,
    "addr_street": "Kelsick Road",
    "addr_city": "Ambleside",
    "addr_postcode": "LA22 0BZ",
    "addr_country": null,
    "phone": "+44 15394 34342",
    "website": null
  },
  {
    "id": 4232066441,
    "type": "node",
    "tourism": "guest_house",
    "name": "Brathay Lodge",
    "lat": 54.4294583,
    "lon": -2.9649974,
    "amenity": null,
    "brand": null,
    "brand_wikidata": null,
    "fhrs_id": "441659",
    "addr_housename": null,
    "addr_street": "Rothay Road",
    "addr_city": "Ambleside",
    "addr_postcode": "LA22 0EE",
    "addr_country": null,
    "phone": "+44 15394 32000",
    "website": "https://www.brathay-lodge.co.uk/"
  },
  {
    "id": 4233485541,
    "type": "node",
    "tourism": "guest_house",
    "name": "Close House In The Lakes",
    "lat": 54.4285252,
    "lon": -2.9630076,
    "amenity": null,
    "brand": null,
    "brand_wikidata": null,
    "fhrs_id": null,
    "addr_housename": null,
    "addr_street": "Wansfell Road",
    "addr_city": "Ambleside",
    "addr_postcode": null,
    "addr_country": null,
    "phone": null,
    "website": null
  },
  {
    "id": 4233485558,
    "type": "node",
    "tourism": "guest_house",
    "name": "Elder Grove",
    "lat": 54.4286222,
    "lon": -2.9625859,
    "amenity": null,
    "brand": null,
    "brand_wikidata": null,
    "fhrs_id": "299330",
    "addr_housename": "Elder Grove",
    "addr_street": "Lake Road",
    "addr_city": "Ambleside",
    "addr_postcode": "LA22 0DB",
    "addr_country": null,
    "phone": "+44 15394 32504",
    "website": null
  },
  {
    "id": 4233485563,
    "type": "node",
    "tourism": "guest_house",
    "name": "Wordsworths Guest House",
    "lat": 54.42872,
    "lon": -2.9625999,
    "amenity": null,
    "brand": null,
    "brand_wikidata": null,
    "fhrs_id": "299338",
    "addr_housename": null,
    "addr_street": "Lake Road",
    "addr_city": "Ambleside",
    "addr_postcode": "LA22 0DB",
    "addr_country": null,
    "phone": "+44 15394 32095",
    "website": "https://www.wordsworthsguesthouse.co.uk/"
  },
  {
    "id": 4233485572,
    "type": "node",
    "tourism": "hotel",
    "name": "Ambleside Townhouse",
    "lat": 54.4291873,
    "lon": -2.9625813,
    "amenity": null,
    "brand": null,
    "brand_wikidata": null,
    "fhrs_id": null,
    "addr_housename": "Lakes Lodge",
    "addr_street": "Lake Road",
    "addr_city": "Ambleside",
    "addr_postcode": "LA22 0DB",
    "addr_country": null,
    "phone": null,
    "website": null
  },
  {
    "id": 4233485577,
    "type": "node",
    "tourism": "hotel",
    "name": "Fellside Rooms",
    "lat": 54.4293122,
    "lon": -2.9625976,
    "amenity": null,
    "brand": null,
    "brand_wikidata": null,
    "fhrs_id": null,
    "addr_housename": null,
    "addr_street": "Lake Road",
    "addr_city": "Ambleside",
    "addr_postcode": "LA22 0DB",
    "addr_country": null,
    "phone": null,
    "website": null
  },
  {
    "id": 4233485578,
    "type": "node",
    "tourism": "guest_house",
    "name": "Ferndale Lodge",
    "lat": 54.4293734,
    "lon": -2.9625999,
    "amenity": null,
    "brand": null,
    "brand_wikidata": null,
    "fhrs_id": "299992",
    "addr_housename": "Ferndale Lodge",
    "addr_street": "Lake Road",
    "addr_city": "Ambleside",
    "addr_postcode": "LA22 0DB",
    "addr_country": null,
    "phone": null,
    "website": null
  },
  {
    "id": 4233518050,
    "type": "node",
    "tourism": "guest_house",
    "name": "Diamond Lodge",
    "lat": 54.4267405,
    "lon": -2.9614258,
    "amenity": null,
    "brand": null,
    "brand_wikidata": null,
    "fhrs_id": "1380481",
    "addr_housename": null,
    "addr_street": "Lake Road",
    "addr_city": "Ambleside",
    "addr_postcode": "LA22 0DN",
    "addr_country": null,
    "phone": null,
    "website": null
  },
  {
    "id": 4233541642,
    "type": "node",
    "tourism": "guest_house",
    "name": "Lyndale Guest House",
    "lat": 54.4251431,
    "lon": -2.9613918,
    "amenity": null,
    "brand": null,
    "brand_wikidata": null,
    "fhrs_id": "299109",
    "addr_housename": null,
    "addr_street": "Lake Road",
    "addr_city": "Ambleside",
    "addr_postcode": "LA22 0DN",
    "addr_country": null,
    "phone": "+44 15394 34244",
    "website": null
  },
  {
    "id": 4233541643,
    "type": "node",
    "tourism": "guest_house",
    "name": "Wanslea",
    "lat": 54.4249939,
    "lon": -2.9613741,
    "amenity": null,
    "brand": null,
    "brand_wikidata": null,
    "fhrs_id": "441624",
    "addr_housename": null,
    "addr_street": "Lake Road",
    "addr_city": "Ambleside",
    "addr_postcode": "LA22 0DN",
    "addr_country": null,
    "phone": null,
    "website": null
  },
  {
    "id": 4233541644,
    "type": "node",
    "tourism": "guest_house",
    "name": "Broadview Guest House",
    "lat": 54.425069,
    "lon": -2.9613794,
    "amenity": null,
    "brand": null,
    "brand_wikidata": null,
    "fhrs_id": null,
    "addr_housename": null,
    "addr_street": "Lake Road",
    "addr_city": "Ambleside",
    "addr_postcode": "LA22 0DN",
    "addr_country": null,
    "phone": null,
    "website": null
  },
  {
    "id": 4233944472,
    "type": "node",
    "tourism": "guest_house",
    "name": "Quaysiders Club",
    "lat": 54.4219029,
    "lon": -2.96327,
    "amenity": null,
    "brand": null,
    "brand_wikidata": null,
    "fhrs_id": null,
    "addr_housename": null,
    "addr_street": "Borrans Road",
    "addr_city": "Ambleside",
    "addr_postcode": "LA22 0HJ",
    "addr_country": null,
    "phone": "+44 1539 433969",
    "website": "https://www.quaysiders.co.uk/"
  },
  {
    "id": 4233989940,
    "type": "node",
    "tourism": "hostel",
    "name": "Ambleside Backpackers",
    "lat": 54.4276463,
    "lon": -2.9612191,
    "amenity": null,
    "brand": null,
    "brand_wikidata": null,
    "fhrs_id": "299705",
    "addr_housename": "Iveing Cottage",
    "addr_street": "Old Lake Road",
    "addr_city": "Ambleside",
    "addr_postcode": "LA22 0DJ",
    "addr_country": null,
    "phone": null,
    "website": null
  },
  {
    "id": 4235560008,
    "type": "node",
    "tourism": "hotel",
    "name": "Belmount Hall Wedding Venue",
    "lat": 54.385082,
    "lon": -2.9994236,
    "amenity": null,
    "brand": null,
    "brand_wikidata": null,
    "fhrs_id": "878072",
    "addr_housename": null,
    "addr_street": null,
    "addr_city": "Outgate",
    "addr_postcode": "LA22 0NJ",
    "addr_country": null,
    "phone": "+44 15394 36373",
    "website": null
  },
  {
    "id": 4235560144,
    "type": "node",
    "tourism": "guest_house",
    "name": "Borwick Lodge",
    "lat": 54.3872594,
    "lon": -3.0143092,
    "amenity": null,
    "brand": null,
    "brand_wikidata": null,
    "fhrs_id": null,
    "addr_housename": null,
    "addr_street": null,
    "addr_city": null,
    "addr_postcode": null,
    "addr_country": null,
    "phone": null,
    "website": null
  },
  {
    "id": 4235574477,
    "type": "node",
    "tourism": "guest_house",
    "name": "Sawrey Ground Guesthouse",
    "lat": 54.3829303,
    "lon": -3.0248329,
    "amenity": null,
    "brand": null,
    "brand_wikidata": null,
    "fhrs_id": null,
    "addr_housename": null,
    "addr_street": "Hawkshead Hill",
    "addr_city": "Ambleside",
    "addr_postcode": "LA22 0PP",
    "addr_country": null,
    "phone": "+44 15394 36683",
    "website": "https://sawreyground.com/"
  },
  {
    "id": 4235574875,
    "type": "node",
    "tourism": "guest_house",
    "name": "Betty Fold",
    "lat": 54.3847788,
    "lon": -3.0178362,
    "amenity": null,
    "brand": null,
    "brand_wikidata": null,
    "fhrs_id": null,
    "addr_housename": null,
    "addr_street": null,
    "addr_city": null,
    "addr_postcode": "LA22 0PS",
    "addr_country": null,
    "phone": "+44 15394 36611",
    "website": "http://www.bettyfold.co.uk/"
  },
  {
    "id": 4235575259,
    "type": "node",
    "tourism": "guest_house",
    "name": "Summer Hill Country House",
    "lat": 54.3818098,
    "lon": -3.0233643,
    "amenity": null,
    "brand": null,
    "brand_wikidata": null,
    "fhrs_id": "299981",
    "addr_housename": null,
    "addr_street": null,
    "addr_city": "Hawkshead Hill",
    "addr_postcode": "LA22 0PP",
    "addr_country": null,
    "phone": "+44 1539 436180",
    "website": "https://summerhillcountryhouse.com/"
  },
  {
    "id": 4241493991,
    "type": "node",
    "tourism": "guest_house",
    "name": "Ees Wyke Country House",
    "lat": 54.3530796,
    "lon": -2.9745555,
    "amenity": null,
    "brand": null,
    "brand_wikidata": null,
    "fhrs_id": "328953",
    "addr_housename": null,
    "addr_street": null,
    "addr_city": "Near Sawrey",
    "addr_postcode": "LA22 0JZ",
    "addr_country": null,
    "phone": "+44 15394 36393",
    "website": "https://www.eeswyke.co.uk/"
  },
  {
    "id": 4242554624,
    "type": "node",
    "tourism": "guest_house",
    "name": "Belle Green",
    "lat": 54.3531346,
    "lon": -2.9702078,
    "amenity": null,
    "brand": null,
    "brand_wikidata": null,
    "fhrs_id": "579492",
    "addr_housename": "Belle Green Cottage",
    "addr_street": null,
    "addr_city": "Near Sawrey",
    "addr_postcode": "LA22 0LF",
    "addr_country": null,
    "phone": "+44 15394 36508",
    "website": "https://www.bellegreenbedandbreakfast.co.uk/"
  },
  {
    "id": 4242704898,
    "type": "node",
    "tourism": "guest_house",
    "name": "Lake District Love Shack",
    "lat": 54.3392059,
    "lon": -2.9538827,
    "amenity": null,
    "brand": null,
    "brand_wikidata": null,
    "fhrs_id": null,
    "addr_housename": null,
    "addr_street": null,
    "addr_city": "Cunsey",
    "addr_postcode": "LA22 0LT",
    "addr_country": null,
    "phone": "+44 15394 41242",
    "website": "https://lakedistrictloveshack.com/"
  },
  {
    "id": 4282222229,
    "type": "node",
    "tourism": "apartment",
    "name": "Fellside Studios",
    "lat": 54.4160912,
    "lon": -2.9121447,
    "amenity": null,
    "brand": null,
    "brand_wikidata": null,
    "fhrs_id": null,
    "addr_housename": null,
    "addr_street": "Greengate",
    "addr_city": "Troutbeck",
    "addr_postcode": "LA23 1NN",
    "addr_country": null,
    "phone": null,
    "website": null
  },
  {
    "id": 4342255989,
    "type": "node",
    "tourism": "guest_house",
    "name": "Old Travellers Rest",
    "lat": 54.3321277,
    "lon": -3.2333649,
    "amenity": null,
    "brand": null,
    "brand_wikidata": null,
    "fhrs_id": null,
    "addr_housename": null,
    "addr_street": null,
    "addr_city": "Ulpha",
    "addr_postcode": "LA20 6DX",
    "addr_country": null,
    "phone": "+44 1253 883884",
    "website": null
  },
  {
    "id": 4342340999,
    "type": "node",
    "tourism": "guest_house",
    "name": "Newfield Inn",
    "lat": 54.3535232,
    "lon": -3.1896599,
    "amenity": null,
    "brand": null,
    "brand_wikidata": null,
    "fhrs_id": null,
    "addr_housename": null,
    "addr_street": null,
    "addr_city": null,
    "addr_postcode": null,
    "addr_country": null,
    "phone": "+44 1229 716208",
    "website": null
  },
  {
    "id": 4342387812,
    "type": "node",
    "tourism": "guest_house",
    "name": "Brigg House",
    "lat": 54.3411856,
    "lon": -3.0994924,
    "amenity": null,
    "brand": null,
    "brand_wikidata": null,
    "fhrs_id": null,
    "addr_housename": null,
    "addr_street": null,
    "addr_city": "Torver, Coniston",
    "addr_postcode": "LA21 8AY",
    "addr_country": null,
    "phone": "+44 15395 38180",
    "website": "https://www.lakeland-cottage-company.co.uk/lake-district-cottage/brigg_house/"
  },
  {
    "id": 4342387927,
    "type": "node",
    "tourism": "guest_house",
    "name": "Browside and Underwood Self Catering",
    "lat": 54.3464562,
    "lon": -3.0930833,
    "amenity": null,
    "brand": null,
    "brand_wikidata": null,
    "fhrs_id": null,
    "addr_housename": null,
    "addr_street": null,
    "addr_city": "Little Arrow",
    "addr_postcode": "LA21 8AU",
    "addr_country": null,
    "phone": "+44 15394 41162",
    "website": "https://www.browsideconiston.co.uk/"
  },
  {
    "id": 4342387954,
    "type": "node",
    "tourism": "guest_house",
    "name": "Coniston Country Cottages",
    "lat": 54.3459186,
    "lon": -3.0930914,
    "amenity": null,
    "brand": null,
    "brand_wikidata": null,
    "fhrs_id": null,
    "addr_housename": null,
    "addr_street": null,
    "addr_city": "Little Arrow",
    "addr_postcode": "LA21 8AU",
    "addr_country": null,
    "phone": "+44 15394 41114",
    "website": "https://www.conistoncottages.co.uk/"
  },
  {
    "id": 4342387955,
    "type": "node",
    "tourism": "guest_house",
    "name": "Wheelgate B&B",
    "lat": 54.3457327,
    "lon": -3.0932131,
    "amenity": null,
    "brand": null,
    "brand_wikidata": null,
    "fhrs_id": null,
    "addr_housename": null,
    "addr_street": null,
    "addr_city": "Little Arrow",
    "addr_postcode": "LA21 8AU",
    "addr_country": null,
    "phone": "+44 15394 41418",
    "website": "https://www.wheelgate.co.uk/"
  },
  {
    "id": 4342427043,
    "type": "node",
    "tourism": "guest_house",
    "name": "Brocklebank Ground Holiday Cottages",
    "lat": 54.3353772,
    "lon": -3.1143074,
    "amenity": null,
    "brand": null,
    "brand_wikidata": null,
    "fhrs_id": null,
    "addr_housename": "Barn House Cottages",
    "addr_street": null,
    "addr_city": "Torver",
    "addr_postcode": "LA21 8BS",
    "addr_country": null,
    "phone": "+44 15394 49588",
    "website": "brocklebankground.com"
  },
  {
    "id": 4406023512,
    "type": "node",
    "tourism": "guest_house",
    "name": "Burnside B&B",
    "lat": 54.6041386,
    "lon": -3.1160397,
    "amenity": null,
    "brand": null,
    "brand_wikidata": null,
    "fhrs_id": "1549908",
    "addr_housename": null,
    "addr_street": "Penrith Road",
    "addr_city": "Keswick",
    "addr_postcode": "CA12 4LJ",
    "addr_country": null,
    "phone": "+44 17687 72639",
    "website": "https://www.burnside-keswick.co.uk/"
  },
  {
    "id": 4500492016,
    "type": "node",
    "tourism": "guest_house",
    "name": "Raise Cottage",
    "lat": 54.4903573,
    "lon": -3.0357385,
    "amenity": null,
    "brand": null,
    "brand_wikidata": null,
    "fhrs_id": "669344",
    "addr_housename": "Raise Cottage",
    "addr_street": null,
    "addr_city": "Grasmere",
    "addr_postcode": "LA22 9RS",
    "addr_country": null,
    "phone": "+44 15394 35357",
    "website": "http://raisecottagegrasmere.co.uk/"
  },
  {
    "id": 4502479638,
    "type": "node",
    "tourism": "hotel",
    "name": "Grand at Grasmere",
    "lat": 54.4567832,
    "lon": -3.0271556,
    "amenity": null,
    "brand": null,
    "brand_wikidata": null,
    "fhrs_id": "299185",
    "addr_housename": null,
    "addr_street": "Red Bank Road",
    "addr_city": "Grasmere",
    "addr_postcode": "LA22 9PU",
    "addr_country": null,
    "phone": "+44 15394 35486",
    "website": "https://www.grandatgrasmere.co.uk/"
  },
  {
    "id": 4502479681,
    "type": "node",
    "tourism": "hotel",
    "name": "Bridge House Hotel",
    "lat": 54.4567813,
    "lon": -3.0235345,
    "amenity": null,
    "brand": null,
    "brand_wikidata": null,
    "fhrs_id": "299512",
    "addr_housename": null,
    "addr_street": "Stock Lane",
    "addr_city": "Grasmere",
    "addr_postcode": "LA22 9SN",
    "addr_country": null,
    "phone": "+44 15394 35425",
    "website": "https://theinnatgrasmere.co.uk/bridge_house_hotel.php"
  },
  {
    "id": 4502479700,
    "type": "node",
    "tourism": "guest_house",
    "name": "Lake View Country House",
    "lat": 54.4560742,
    "lon": -3.0224075,
    "amenity": null,
    "brand": null,
    "brand_wikidata": null,
    "fhrs_id": "328737",
    "addr_housename": "Lake View",
    "addr_street": "Lake View Drive",
    "addr_city": "Grasmere",
    "addr_postcode": "LA22 9TD",
    "addr_country": null,
    "phone": "+44 15394 35384",
    "website": "https://www.lakeview-grasmere.com/"
  },
  {
    "id": 4502479707,
    "type": "node",
    "tourism": "guest_house",
    "name": "Stonegarth",
    "lat": 54.4565152,
    "lon": -3.0223418,
    "amenity": null,
    "brand": null,
    "brand_wikidata": null,
    "fhrs_id": null,
    "addr_housename": null,
    "addr_street": "Lake View Drive",
    "addr_city": "Grasmere",
    "addr_postcode": "LA22 9TD",
    "addr_country": null,
    "phone": "+44 15394 35458",
    "website": "https://stonegarthgrasmere.co.uk/"
  },
  {
    "id": 4502536676,
    "type": "node",
    "tourism": "guest_house",
    "name": "Heidi's Grasmere Lodge",
    "lat": 54.458593,
    "lon": -3.0248298,
    "amenity": null,
    "brand": null,
    "brand_wikidata": null,
    "fhrs_id": null,
    "addr_housename": null,
    "addr_street": "Red Lion Square",
    "addr_city": "Grasmere",
    "addr_postcode": "LA22 9SP",
    "addr_country": null,
    "phone": "+44 15394 35248",
    "website": "http://heidisgrasmerelodge.co.uk/"
  },
  {
    "id": 4502643895,
    "type": "node",
    "tourism": "guest_house",
    "name": "Chestnut Villa",
    "lat": 54.4665401,
    "lon": -3.0221298,
    "amenity": null,
    "brand": null,
    "brand_wikidata": null,
    "fhrs_id": "299842",
    "addr_housename": "Chestnut Villa",
    "addr_street": "Keswick Road",
    "addr_city": "Grasmere",
    "addr_postcode": "LA22 9RE",
    "addr_country": null,
    "phone": "+44 15394 35218",
    "website": null
  },
  {
    "id": 4502656600,
    "type": "node",
    "tourism": "guest_house",
    "name": "Wray Cottage",
    "lat": 54.4562916,
    "lon": -3.0320883,
    "amenity": null,
    "brand": null,
    "brand_wikidata": null,
    "fhrs_id": null,
    "addr_housename": null,
    "addr_street": null,
    "addr_city": null,
    "addr_postcode": null,
    "addr_country": null,
    "phone": "+44 1539435315",
    "website": "https://thewraycottagebb.weebly.com/"
  },
  {
    "id": 4513400100,
    "type": "node",
    "tourism": "guest_house",
    "name": "Littletown Farm Guest House",
    "lat": 54.5657638,
    "lon": -3.1853457,
    "amenity": null,
    "brand": null,
    "brand_wikidata": null,
    "fhrs_id": null,
    "addr_housename": null,
    "addr_street": null,
    "addr_city": "Littletown",
    "addr_postcode": "CA12 5TU",
    "addr_country": null,
    "phone": "+44 17687 78353",
    "website": "http://www.littletownfarm.co.uk/"
  },
  {
    "id": 4513527184,
    "type": "node",
    "tourism": "guest_house",
    "name": "Rose Cottage",
    "lat": 54.5240177,
    "lon": -3.1470795,
    "amenity": null,
    "brand": null,
    "brand_wikidata": null,
    "fhrs_id": null,
    "addr_housename": null,
    "addr_street": null,
    "addr_city": "Rosthwaite",
    "addr_postcode": "CA12 5XB",
    "addr_country": null,
    "phone": "+44 7831 223474",
    "website": "http://www.borrowdalecottages.co.uk/"
  },
  {
    "id": 4513527185,
    "type": "node",
    "tourism": "guest_house",
    "name": "Kiln How",
    "lat": 54.5232568,
    "lon": -3.1481984,
    "amenity": null,
    "brand": null,
    "brand_wikidata": null,
    "fhrs_id": null,
    "addr_housename": null,
    "addr_street": "Howe Lane",
    "addr_city": "Rosthwaite",
    "addr_postcode": "CA12 5XB",
    "addr_country": null,
    "phone": "+44 17687 77356",
    "website": "http://www.kilnhow.com/"
  },
  {
    "id": 4513547617,
    "type": "node",
    "tourism": "guest_house",
    "name": "Crag Lea",
    "lat": 54.5470617,
    "lon": -3.157425,
    "amenity": null,
    "brand": null,
    "brand_wikidata": null,
    "fhrs_id": null,
    "addr_housename": null,
    "addr_street": null,
    "addr_city": "Grange",
    "addr_postcode": null,
    "addr_country": null,
    "phone": "+44 17687 80571",
    "website": "https://www.sallyscottages.co.uk/crag-lea"
  },
  {
    "id": 4515129875,
    "type": "node",
    "tourism": "hotel",
    "name": "Dalegarth House",
    "lat": 54.6020226,
    "lon": -3.16104,
    "amenity": null,
    "brand": null,
    "brand_wikidata": null,
    "fhrs_id": null,
    "addr_housename": null,
    "addr_street": null,
    "addr_city": null,
    "addr_postcode": null,
    "addr_country": null,
    "phone": null,
    "website": null
  },
  {
    "id": 4515303704,
    "type": "node",
    "tourism": "guest_house",
    "name": "Lake View",
    "lat": 54.6020832,
    "lon": -3.1604039,
    "amenity": null,
    "brand": null,
    "brand_wikidata": null,
    "fhrs_id": null,
    "addr_housename": null,
    "addr_street": null,
    "addr_city": null,
    "addr_postcode": null,
    "addr_country": null,
    "phone": null,
    "website": null
  },
  {
    "id": 4515303728,
    "type": "node",
    "tourism": "guest_house",
    "name": "The Mount",
    "lat": 54.6019698,
    "lon": -3.160428,
    "amenity": null,
    "brand": null,
    "brand_wikidata": null,
    "fhrs_id": "1550337",
    "addr_housename": null,
    "addr_street": "The Mount",
    "addr_city": "Keswick",
    "addr_postcode": "CA12 5RD",
    "addr_country": null,
    "phone": null,
    "website": null
  },
  {
    "id": 4533854290,
    "type": "node",
    "tourism": "guest_house",
    "name": "Fornside Farm",
    "lat": 54.5762853,
    "lon": -3.0520184,
    "amenity": null,
    "brand": null,
    "brand_wikidata": null,
    "fhrs_id": "267714",
    "addr_housename": null,
    "addr_street": null,
    "addr_city": "St John's In The Vale",
    "addr_postcode": "CA12 4TS",
    "addr_country": null,
    "phone": "+44 17687 79173",
    "website": "https://fornside.co.uk/"
  },
  {
    "id": 4561601163,
    "type": "node",
    "tourism": "guest_house",
    "name": "Rowling End & The Mouse House",
    "lat": 54.5742532,
    "lon": -3.1856107,
    "amenity": null,
    "brand": null,
    "brand_wikidata": null,
    "fhrs_id": null,
    "addr_housename": null,
    "addr_street": "Newlands Hause",
    "addr_city": "Stair",
    "addr_postcode": "CA12 5TS",
    "addr_country": null,
    "phone": "+44 17687 77025",
    "website": "https://www.rowlingend.co.uk/"
  },
  {
    "id": 4561635867,
    "type": "node",
    "tourism": "guest_house",
    "name": "Spa Cottage",
    "lat": 54.6012502,
    "lon": -3.1915401,
    "amenity": null,
    "brand": null,
    "brand_wikidata": null,
    "fhrs_id": null,
    "addr_housename": "Spa Cottage",
    "addr_street": "Main Street",
    "addr_city": "Braithwaite",
    "addr_postcode": "CA12 5SX",
    "addr_country": null,
    "phone": "+44 7766 395172",
    "website": "http://www.spacottage.co.uk/"
  },
  {
    "id": 4561676472,
    "type": "node",
    "tourism": "apartment",
    "name": "HPB",
    "lat": 54.6032073,
    "lon": -3.1902439,
    "amenity": null,
    "brand": null,
    "brand_wikidata": null,
    "fhrs_id": null,
    "addr_housename": null,
    "addr_street": "Braithwaite Court",
    "addr_city": "Braithwaite",
    "addr_postcode": null,
    "addr_country": null,
    "phone": null,
    "website": "https://www.hpb.co.uk/"
  },
  {
    "id": 4561676698,
    "type": "node",
    "tourism": "guest_house",
    "name": "Foresters Cottage",
    "lat": 54.6036291,
    "lon": -3.1887755,
    "amenity": null,
    "brand": null,
    "brand_wikidata": null,
    "fhrs_id": null,
    "addr_housename": null,
    "addr_street": null,
    "addr_city": "Braithwaite",
    "addr_postcode": null,
    "addr_country": null,
    "phone": null,
    "website": "http://www.foresterscottage.com/"
  },
  {
    "id": 4561703351,
    "type": "node",
    "tourism": "guest_house",
    "name": "Hermiston",
    "lat": 54.6056159,
    "lon": -3.1896541,
    "amenity": null,
    "brand": null,
    "brand_wikidata": null,
    "fhrs_id": "1078928",
    "addr_housename": null,
    "addr_street": null,
    "addr_city": "Braithwaite",
    "addr_postcode": "CA12 5RY",
    "addr_country": null,
    "phone": "+44 1768 778190",
    "website": "http://www.hermiston-keswick.com/"
  },
  {
    "id": 4561703441,
    "type": "node",
    "tourism": "guest_house",
    "name": "Maple Bank Country Guest House",
    "lat": 54.6074708,
    "lon": -3.1906138,
    "amenity": null,
    "brand": null,
    "brand_wikidata": null,
    "fhrs_id": "267208",
    "addr_housename": null,
    "addr_street": null,
    "addr_city": "Braithwaite",
    "addr_postcode": "CA12 5RY",
    "addr_country": null,
    "phone": "+44 1768 778000",
    "website": "https://www.maplebank.co.uk/"
  },
  {
    "id": 4561703479,
    "type": "node",
    "tourism": "guest_house",
    "name": "Bisoi B&B Suites",
    "lat": 54.606449,
    "lon": -3.19018,
    "amenity": null,
    "brand": null,
    "brand_wikidata": null,
    "fhrs_id": null,
    "addr_housename": null,
    "addr_street": null,
    "addr_city": "Braithwaite",
    "addr_postcode": "CA12 5RY",
    "addr_country": null,
    "phone": "+44 17687 78532",
    "website": "http://www.bisoi.co.uk/"
  },
  {
    "id": 4625121955,
    "type": "node",
    "tourism": "guest_house",
    "name": "Thorneythwaite Farm",
    "lat": 54.5100179,
    "lon": -3.1660729,
    "amenity": null,
    "brand": null,
    "brand_wikidata": null,
    "fhrs_id": null,
    "addr_housename": null,
    "addr_street": null,
    "addr_city": "Keswick",
    "addr_postcode": "CA12 5XQ",
    "addr_country": null,
    "phone": "+44 17687 77237",
    "website": null
  },
  {
    "id": 4648834077,
    "type": "node",
    "tourism": "guest_house",
    "name": "Oaklands Guest House",
    "lat": 54.3713193,
    "lon": -3.0753287,
    "amenity": null,
    "brand": null,
    "brand_wikidata": null,
    "fhrs_id": "1266225",
    "addr_housename": "Oaklands",
    "addr_street": "Yewdale Road",
    "addr_city": "Coniston",
    "addr_postcode": "LA21 8DX",
    "addr_country": null,
    "phone": "+44 15394 41245",
    "website": "http://www.oaklandsconiston.co.uk/"
  },
  {
    "id": 4648834088,
    "type": "node",
    "tourism": "guest_house",
    "name": "Beech Tree House",
    "lat": 54.3713039,
    "lon": -3.0748015,
    "amenity": null,
    "brand": null,
    "brand_wikidata": null,
    "fhrs_id": null,
    "addr_housename": null,
    "addr_street": "Yewdale Road",
    "addr_city": "Coniston",
    "addr_postcode": "LA21 8DX",
    "addr_country": null,
    "phone": "+44 15394 41717",
    "website": null
  },
  {
    "id": 4648834256,
    "type": "node",
    "tourism": "guest_house",
    "name": "Peasecroft B&B",
    "lat": 54.3721094,
    "lon": -3.0787692,
    "amenity": null,
    "brand": null,
    "brand_wikidata": null,
    "fhrs_id": null,
    "addr_housename": null,
    "addr_street": null,
    "addr_city": "Coniston",
    "addr_postcode": "LA21 8HW",
    "addr_country": null,
    "phone": "+44 7748 664 844",
    "website": "http://peasecroft.co.uk"
  },
  {
    "id": 4652008785,
    "type": "node",
    "tourism": "hotel",
    "name": "The Yewdale Inn Hotel",
    "lat": 54.3691426,
    "lon": -3.0755484,
    "amenity": null,
    "brand": null,
    "brand_wikidata": null,
    "fhrs_id": null,
    "addr_housename": null,
    "addr_street": "Yewdale Road",
    "addr_city": "Coniston",
    "addr_postcode": "LA21 8DU",
    "addr_country": null,
    "phone": "+44 15394 41280",
    "website": "https://yewdaleinn.com/"
  },
  {
    "id": 4652271923,
    "type": "node",
    "tourism": "guest_house",
    "name": "Meadowdore B&B",
    "lat": 54.3693846,
    "lon": -3.0747697,
    "amenity": null,
    "brand": null,
    "brand_wikidata": null,
    "fhrs_id": "328964",
    "addr_housename": null,
    "addr_street": "Hawkshead Old Road",
    "addr_city": "Coniston",
    "addr_postcode": "LA21 8ET",
    "addr_country": null,
    "phone": "+44 15394 41638",
    "website": null
  },
  {
    "id": 4652731042,
    "type": "node",
    "tourism": "guest_house",
    "name": "Dixon Ground Cottages",
    "lat": 54.3689716,
    "lon": -3.078921,
    "amenity": null,
    "brand": null,
    "brand_wikidata": null,
    "fhrs_id": null,
    "addr_housename": null,
    "addr_street": null,
    "addr_city": "Coniston",
    "addr_postcode": null,
    "addr_country": null,
    "phone": "+44 15394 41765",
    "website": null
  },
  {
    "id": 4659619675,
    "type": "node",
    "tourism": "guest_house",
    "name": "Low Hall cottage",
    "lat": 54.6328575,
    "lon": -3.3563227,
    "amenity": null,
    "brand": null,
    "brand_wikidata": null,
    "fhrs_id": null,
    "addr_housename": null,
    "addr_street": null,
    "addr_city": "Cockermouth",
    "addr_postcode": "CA13 0RE",
    "addr_country": null,
    "phone": null,
    "website": "http://www.lakedistrictcountrycottage.co.uk/"
  },
  {
    "id": 4714721842,
    "type": "node",
    "tourism": "guest_house",
    "name": "Town Head Farm",
    "lat": 54.4796965,
    "lon": -3.030758,
    "amenity": null,
    "brand": null,
    "brand_wikidata": null,
    "fhrs_id": "813328",
    "addr_housename": "Town Head Farmhouse",
    "addr_street": null,
    "addr_city": "Grasmere",
    "addr_postcode": "LA22 9RS",
    "addr_country": null,
    "phone": "+44 15394 35434",
    "website": null
  },
  {
    "id": 4719818089,
    "type": "node",
    "tourism": "camp_site",
    "name": "Pier Cottage Caravan Park",
    "lat": 54.365265,
    "lon": -3.0635397,
    "amenity": null,
    "brand": null,
    "brand_wikidata": null,
    "fhrs_id": null,
    "addr_housename": null,
    "addr_street": null,
    "addr_city": null,
    "addr_postcode": null,
    "addr_country": null,
    "phone": null,
    "website": null
  },
  {
    "id": 4780861956,
    "type": "node",
    "tourism": "guest_house",
    "name": "Graysonside Guest House",
    "lat": 54.6490582,
    "lon": -3.3444158,
    "amenity": null,
    "brand": null,
    "brand_wikidata": null,
    "fhrs_id": null,
    "addr_housename": null,
    "addr_street": "Lorton Road",
    "addr_city": "Cockermouth",
    "addr_postcode": "CA13 9TQ",
    "addr_country": null,
    "phone": "+44 1900 822351",
    "website": "https://graysonside.co.uk/"
  },
  {
    "id": 4830299167,
    "type": "node",
    "tourism": "guest_house",
    "name": "Ashness Farm",
    "lat": 54.563645,
    "lon": -3.1277643,
    "amenity": null,
    "brand": null,
    "brand_wikidata": null,
    "fhrs_id": null,
    "addr_housename": null,
    "addr_street": null,
    "addr_city": "Borrowdale",
    "addr_postcode": "CA12 5UN",
    "addr_country": null,
    "phone": "+44 17687 77361",
    "website": "https://www.ashnessfarm.co.uk/"
  },
  {
    "id": 4830450738,
    "type": "node",
    "tourism": "guest_house",
    "name": "High Lodore Farm",
    "lat": 54.554773,
    "lon": -3.1427334,
    "amenity": null,
    "brand": null,
    "brand_wikidata": null,
    "fhrs_id": "267177",
    "addr_housename": null,
    "addr_street": null,
    "addr_city": "Borrowdale",
    "addr_postcode": "CA12 5UY",
    "addr_country": null,
    "phone": "+44 1768 777221",
    "website": "http://highlodorefarm.co.uk/"
  },
  {
    "id": 4830451175,
    "type": "node",
    "tourism": "guest_house",
    "name": "Greenbank Country Guest house",
    "lat": 54.5516316,
    "lon": -3.1434407,
    "amenity": null,
    "brand": null,
    "brand_wikidata": null,
    "fhrs_id": null,
    "addr_housename": null,
    "addr_street": null,
    "addr_city": "Borrowdale",
    "addr_postcode": "CA12 5UY",
    "addr_country": null,
    "phone": "+44 17687 77215",
    "website": "https://www.greenbankcountryhouse.co.uk/"
  },
  {
    "id": 4830476931,
    "type": "node",
    "tourism": "guest_house",
    "name": "Riverside Holiday Cottage",
    "lat": 54.5498482,
    "lon": -3.1505828,
    "amenity": null,
    "brand": null,
    "brand_wikidata": null,
    "fhrs_id": null,
    "addr_housename": null,
    "addr_street": null,
    "addr_city": "Borrowdale",
    "addr_postcode": "CA12 5UY",
    "addr_country": null,
    "phone": "+44 17687 77919",
    "website": "http://www.riverside-borrowdale.co.uk/"
  },
  {
    "id": 4845777634,
    "type": "node",
    "tourism": "guest_house",
    "name": "Swinside End Farm Bed & Breakfast",
    "lat": 54.6174077,
    "lon": -3.2915197,
    "amenity": null,
    "brand": null,
    "brand_wikidata": null,
    "fhrs_id": "267579",
    "addr_housename": null,
    "addr_street": null,
    "addr_city": "High Lorton",
    "addr_postcode": "CA13 9UA",
    "addr_country": null,
    "phone": "+44 1900 85134",
    "website": "www.swinsideendfarm.co.uk"
  },
  {
    "id": 4861600631,
    "type": "node",
    "tourism": "guest_house",
    "name": "The Mill Race Cottage",
    "lat": 54.6209462,
    "lon": -3.1395161,
    "amenity": null,
    "brand": null,
    "brand_wikidata": null,
    "fhrs_id": null,
    "addr_housename": null,
    "addr_street": null,
    "addr_city": "Applethwaite",
    "addr_postcode": null,
    "addr_country": null,
    "phone": null,
    "website": "https://www.cumbrian-cottages.co.uk/northern-lakes/keswick-area/the-mill-race-cc112115"
  },
  {
    "id": 4861670914,
    "type": "node",
    "tourism": "guest_house",
    "name": "Appletree Cottage",
    "lat": 54.627114,
    "lon": -3.1702183,
    "amenity": null,
    "brand": null,
    "brand_wikidata": null,
    "fhrs_id": null,
    "addr_housename": null,
    "addr_street": null,
    "addr_city": null,
    "addr_postcode": null,
    "addr_country": null,
    "phone": null,
    "website": "https://appletreecottage-keswick.co.uk/"
  },
  {
    "id": 4861962735,
    "type": "node",
    "tourism": "hotel",
    "name": "Overwater Hall Hotel",
    "lat": 54.70079,
    "lon": -3.1754243,
    "amenity": null,
    "brand": null,
    "brand_wikidata": null,
    "fhrs_id": null,
    "addr_housename": null,
    "addr_street": null,
    "addr_city": "Ireby",
    "addr_postcode": "CA7 1HH",
    "addr_country": null,
    "phone": "+44 17687 76566",
    "website": "https://www.overwaterhall.co.uk/"
  },
  {
    "id": 4863675867,
    "type": "node",
    "tourism": "guest_house",
    "name": "Mosedale End Farm B&B",
    "lat": 54.682707,
    "lon": -2.999003,
    "amenity": null,
    "brand": null,
    "brand_wikidata": null,
    "fhrs_id": "307430",
    "addr_housename": null,
    "addr_street": null,
    "addr_city": "Mosedale",
    "addr_postcode": "CA11 0XQ",
    "addr_country": null,
    "phone": "+44 17687 79605",
    "website": "https://www.mosedaleendfarm.co.uk/"
  },
  {
    "id": 4863675872,
    "type": "node",
    "tourism": "guest_house",
    "name": "Brantgate B&B",
    "lat": 54.6821723,
    "lon": -2.9989888,
    "amenity": null,
    "brand": null,
    "brand_wikidata": null,
    "fhrs_id": "307431",
    "addr_housename": null,
    "addr_street": null,
    "addr_city": "Mosedale",
    "addr_postcode": "CA11 0XQ",
    "addr_country": null,
    "phone": "+44 17687 79346",
    "website": "http://www.brantgate.co.uk/"
  },
  {
    "id": 4863676746,
    "type": "node",
    "tourism": "guest_house",
    "name": "Mosedale House",
    "lat": 54.6804331,
    "lon": -3.00055,
    "amenity": null,
    "brand": null,
    "brand_wikidata": null,
    "fhrs_id": null,
    "addr_housename": null,
    "addr_street": null,
    "addr_city": "Mosedale",
    "addr_postcode": "CA11 0XQ",
    "addr_country": null,
    "phone": "+44 17687 79371",
    "website": "www.mosedalehouse.co.uk"
  },
  {
    "id": 4863812961,
    "type": "node",
    "tourism": "guest_house",
    "name": "Near Howe Cottages",
    "lat": 54.6500409,
    "lon": -2.9718031,
    "amenity": null,
    "brand": null,
    "brand_wikidata": null,
    "fhrs_id": null,
    "addr_housename": null,
    "addr_street": null,
    "addr_city": "Mungrisdale",
    "addr_postcode": null,
    "addr_country": null,
    "phone": "+44 1768 779 678",
    "website": "https://www.nearhowe.co.uk/"
  },
  {
    "id": 4863812967,
    "type": "node",
    "tourism": "guest_house",
    "name": "Askew Rigg Farm",
    "lat": 54.64286,
    "lon": -2.9757378,
    "amenity": null,
    "brand": null,
    "brand_wikidata": null,
    "fhrs_id": null,
    "addr_housename": null,
    "addr_street": null,
    "addr_city": null,
    "addr_postcode": null,
    "addr_country": null,
    "phone": null,
    "website": null
  },
  {
    "id": 4863813084,
    "type": "node",
    "tourism": "guest_house",
    "name": "Lisco Farm Bed & Breakfast",
    "lat": 54.6363763,
    "lon": -2.9783321,
    "amenity": null,
    "brand": null,
    "brand_wikidata": null,
    "fhrs_id": null,
    "addr_housename": null,
    "addr_street": null,
    "addr_city": "Troutbeck",
    "addr_postcode": "CA11 0SY",
    "addr_country": null,
    "phone": "+44 17687 79645",
    "website": "http://www.liscofarm.co.uk/"
  },
  {
    "id": 4869614173,
    "type": "node",
    "tourism": "guest_house",
    "name": "Lowpark Cottage",
    "lat": 54.5718119,
    "lon": -3.3250472,
    "amenity": null,
    "brand": null,
    "brand_wikidata": null,
    "fhrs_id": null,
    "addr_housename": null,
    "addr_street": null,
    "addr_city": "Loweswater",
    "addr_postcode": null,
    "addr_country": null,
    "phone": null,
    "website": "http://www.lowpark-cottage.co.uk/"
  },